[{"name": "Umm Al Quwain City", "country": "AE", "latitude": 25.56473, "longitude": 55.55517, "popIndex": 3},{"name": "Ras Al Khaimah City", "country": "AE", "latitude": 25.78953, "longitude": 55.9432, "popIndex": 14},{"name": "Khawr Fakkan", "country": "AE", "latitude": 25.33132, "longitude": 56.34199, "popIndex": 2},{"name": "Dubai", "country": "AE", "latitude": 25.07725, "longitude": 55.30927, "popIndex": 139},{"name": "Dibba Al-Fujairah", "country": "AE", "latitude": 25.59246, "longitude": 56.26176, "popIndex": 1},{"name": "Dibba Al-Hisn", "country": "AE", "latitude": 25.61955, "longitude": 56.27291, "popIndex": 1},{"name": "Sharjah", "country": "AE", "latitude": 25.33737, "longitude": 55.41206, "popIndex": 51},{"name": "Ar Ruways", "country": "AE", "latitude": 24.11028, "longitude": 52.73056, "popIndex": 1},{"name": "Al Fujairah City", "country": "AE", "latitude": 25.11641, "longitude": 56.34141, "popIndex": 3},{"name": "Al Ain City", "country": "AE", "latitude": 24.19167, "longitude": 55.76056, "popIndex": 34},{"name": "Ajman City", "country": "AE", "latitude": 25.40177, "longitude": 55.47878, "popIndex": 20},{"name": "Abu Dhabi", "country": "AE", "latitude": 24.45118, "longitude": 54.39696, "popIndex": 72},{"name": "Khalifah A City", "country": "AE", "latitude": 24.42588, "longitude": 54.605, "popIndex": 3},{"name": "Bani Yas City", "country": "AE", "latitude": 24.30978, "longitude": 54.62944, "popIndex": 3},{"name": "Musaffah", "country": "AE", "latitude": 24.35893, "longitude": 54.48267, "popIndex": 10},{"name": "Al Shamkhah City", "country": "AE", "latitude": 24.39268, "longitude": 54.70779, "popIndex": 2},{"name": "Reef Al Fujairah City", "country": "AE", "latitude": 25.14479, "longitude": 56.24764, "popIndex": 3},{"name": "Sarande", "country": "AL", "latitude": 39.87534, "longitude": 20.00477, "popIndex": 438},{"name": "Kukes", "country": "AL", "latitude": 42.07694, "longitude": 20.42194, "popIndex": 438},{"name": "Korce", "country": "AL", "latitude": 40.61861, "longitude": 20.78083, "popIndex": 438},{"name": "Gjirokaster", "country": "AL", "latitude": 40.07583, "longitude": 20.13889, "popIndex": 438},{"name": "Elbasan", "country": "AL", "latitude": 41.1125, "longitude": 20.08222, "popIndex": 438},{"name": "Burrel", "country": "AL", "latitude": 41.61028, "longitude": 20.00889, "popIndex": 438},{"name": "Vlore", "country": "AL", "latitude": 40.4686, "longitude": 19.48318, "popIndex": 438},{"name": "Tirana", "country": "AL", "latitude": 41.3275, "longitude": 19.81889, "popIndex": 438},{"name": "Shkoder", "country": "AL", "latitude": 42.06828, "longitude": 19.51258, "popIndex": 438},{"name": "Patos Fshat", "country": "AL", "latitude": 40.64278, "longitude": 19.65083, "popIndex": 438},{"name": "Patos", "country": "AL", "latitude": 40.68333, "longitude": 19.61944, "popIndex": 438},{"name": "Lushnje", "country": "AL", "latitude": 40.94194, "longitude": 19.705, "popIndex": 438},{"name": "Lezhe", "country": "AL", "latitude": 41.78361, "longitude": 19.64361, "popIndex": 438},{"name": "Lac", "country": "AL", "latitude": 41.63556, "longitude": 19.71306, "popIndex": 438},{"name": "Kruje", "country": "AL", "latitude": 41.50917, "longitude": 19.79278, "popIndex": 438},{"name": "Kavaje", "country": "AL", "latitude": 41.18556, "longitude": 19.55694, "popIndex": 438},{"name": "Fier", "country": "AL", "latitude": 40.72389, "longitude": 19.55611, "popIndex": 438},{"name": "Durres", "country": "AL", "latitude": 41.32355, "longitude": 19.45469, "popIndex": 438},{"name": "Berat", "country": "AL", "latitude": 40.70583, "longitude": 19.95222, "popIndex": 438},{"name": "Kapan", "country": "AM", "latitude": 39.20755, "longitude": 46.40576, "popIndex": 1},{"name": "Ararat", "country": "AM", "latitude": 39.83069, "longitude": 44.70569, "popIndex": 1},{"name": "Yerevan", "country": "AM", "latitude": 40.18111, "longitude": 44.51361, "popIndex": 44},{"name": "Vagharshapat", "country": "AM", "latitude": 40.16557, "longitude": 44.29462, "popIndex": 2},{"name": "Vanadzor", "country": "AM", "latitude": 40.80456, "longitude": 44.4939, "popIndex": 4},{"name": "Hrazdan", "country": "AM", "latitude": 40.49748, "longitude": 44.7662, "popIndex": 2},{"name": "Armavir", "country": "AM", "latitude": 40.15446, "longitude": 44.03815, "popIndex": 1},{"name": "Gyumri", "country": "AM", "latitude": 40.7942, "longitude": 43.84528, "popIndex": 6},{"name": "Abovyan", "country": "AM", "latitude": 40.27368, "longitude": 44.63348, "popIndex": 1},{"name": "Saurimo", "country": "AO", "latitude": -9.66078, "longitude": 20.39155, "popIndex": 16},{"name": "Lucapa", "country": "AO", "latitude": -8.41915, "longitude": 20.74466, "popIndex": 4},{"name": "Dundo", "country": "AO", "latitude": -7.36643, "longitude": 20.81557, "popIndex": 6},{"name": "Luau", "country": "AO", "latitude": -10.70727, "longitude": 22.22466, "popIndex": 2},{"name": "Cazombo", "country": "AO", "latitude": -11.89355, "longitude": 22.9024, "popIndex": 1},{"name": "Nzagi", "country": "AO", "latitude": -8.38549, "longitude": 15.30126, "popIndex": 2},{"name": "Uige", "country": "AO", "latitude": -7.60874, "longitude": 15.06131, "popIndex": 13},{"name": "Soyo", "country": "AO", "latitude": -6.1349, "longitude": 12.36894, "popIndex": 8},{"name": "Songo", "country": "AO", "latitude": -7.35207, "longitude": 14.84629, "popIndex": 1},{"name": "Ambrizette", "country": "AO", "latitude": -7.23116, "longitude": 12.8666, "popIndex": 1},{"name": "Negage", "country": "AO", "latitude": -7.75938, "longitude": 15.2722, "popIndex": 4},{"name": "N'dalatando", "country": "AO", "latitude": -9.29782, "longitude": 14.91162, "popIndex": 6},{"name": "Mussende", "country": "AO", "latitude": -9.95, "longitude": 14.8, "popIndex": 1},{"name": "Mbanza Kongo", "country": "AO", "latitude": -6.26667, "longitude": 14.23833, "popIndex": 6},{"name": "Maquela do Zombo", "country": "AO", "latitude": -6.05716, "longitude": 15.10971, "popIndex": 2},{"name": "Malanje", "country": "AO", "latitude": -9.54015, "longitude": 16.34096, "popIndex": 90},{"name": "Luanda", "country": "AO", "latitude": -8.83682, "longitude": 13.23432, "popIndex": 111},{"name": "Dondo", "country": "AO", "latitude": -9.05, "longitude": 15.31667, "popIndex": 90},{"name": "Cuimba", "country": "AO", "latitude": -6.12085, "longitude": 14.62086, "popIndex": 2},{"name": "Cuango-Luzamba", "country": "AO", "latitude": -9.14583, "longitude": 18.04453, "popIndex": 2},{"name": "Cazombo", "country": "AO", "latitude": -8.73204, "longitude": 15.37124, "popIndex": 1},{"name": "Caxito", "country": "AO", "latitude": -8.57848, "longitude": 13.66425, "popIndex": 2},{"name": "Cacuso", "country": "AO", "latitude": -9.42102, "longitude": 15.74668, "popIndex": 2},{"name": "Cabinda", "country": "AO", "latitude": -5.56717, "longitude": 12.19787, "popIndex": 22},{"name": "Barra do Dande", "country": "AO", "latitude": -8.47175, "longitude": 13.37011, "popIndex": 3},{"name": "Bailundo", "country": "AO", "latitude": -9.57499, "longitude": 15.99442, "popIndex": 3},{"name": "Xangongo", "country": "AO", "latitude": -16.7444, "longitude": 14.97494, "popIndex": 1},{"name": "Ucuma", "country": "AO", "latitude": -12.96121, "longitude": 15.05958, "popIndex": 134},{"name": "Ucu Seles", "country": "AO", "latitude": -11.41237, "longitude": 14.30663, "popIndex": 2},{"name": "Tombua", "country": "AO", "latitude": -15.80394, "longitude": 11.84485, "popIndex": 2},{"name": "Sumbe", "country": "AO", "latitude": -11.20605, "longitude": 13.84371, "popIndex": 8},{"name": "Quibala", "country": "AO", "latitude": -10.73366, "longitude": 14.97995, "popIndex": 1},{"name": "Porto Amboim", "country": "AO", "latitude": -10.73251, "longitude": 13.76844, "popIndex": 134},{"name": "Ondjiva", "country": "AO", "latitude": -17.06667, "longitude": 15.73333, "popIndex": 5},{"name": "Mossamedes", "country": "AO", "latitude": -15.19611, "longitude": 12.15222, "popIndex": 10},{"name": "Menongue", "country": "AO", "latitude": -14.6585, "longitude": 17.69099, "popIndex": 10},{"name": "Matala", "country": "AO", "latitude": -14.73272, "longitude": 15.03479, "popIndex": 3},{"name": "Luena", "country": "AO", "latitude": -11.78333, "longitude": 19.91667, "popIndex": 11},{"name": "Lubango", "country": "AO", "latitude": -14.91717, "longitude": 13.4925, "popIndex": 24},{"name": "Lobito", "country": "AO", "latitude": -12.3644, "longitude": 13.53601, "popIndex": 14},{"name": "Cuito", "country": "AO", "latitude": -12.38333, "longitude": 16.93333, "popIndex": 14},{"name": "Catchiungo", "country": "AO", "latitude": -12.56598, "longitude": 16.22589, "popIndex": 1},{"name": "Huambo", "country": "AO", "latitude": -12.77611, "longitude": 15.73917, "popIndex": 24},{"name": "Ganda", "country": "AO", "latitude": -13.01592, "longitude": 14.63502, "popIndex": 3},{"name": "Gabela", "country": "AO", "latitude": -10.85147, "longitude": 14.37993, "popIndex": 5},{"name": "Dombe Grande", "country": "AO", "latitude": -12.95167, "longitude": 13.1025, "popIndex": 1},{"name": "Cubal", "country": "AO", "latitude": -13.03865, "longitude": 14.2455, "popIndex": 4},{"name": "Chitembo", "country": "AO", "latitude": -13.55, "longitude": 16.63333, "popIndex": 1},{"name": "Chinguar", "country": "AO", "latitude": -12.55708, "longitude": 16.33805, "popIndex": 1},{"name": "Cela", "country": "AO", "latitude": -11.42173, "longitude": 15.12345, "popIndex": 4},{"name": "Catumbela", "country": "AO", "latitude": -12.43002, "longitude": 13.54677, "popIndex": 4},{"name": "Catabola", "country": "AO", "latitude": -12.15, "longitude": 17.28333, "popIndex": 1},{"name": "Camacupa", "country": "AO", "latitude": -12.01667, "longitude": 17.48333, "popIndex": 2},{"name": "Caluquembe", "country": "AO", "latitude": -13.86667, "longitude": 14.43333, "popIndex": 1},{"name": "Calulo", "country": "AO", "latitude": -10.00055, "longitude": 14.89519, "popIndex": 134},{"name": "Caala", "country": "AO", "latitude": -12.8525, "longitude": 15.56056, "popIndex": 5},{"name": "Bocoio", "country": "AO", "latitude": -12.47017, "longitude": 14.13688, "popIndex": 1},{"name": "Benguela", "country": "AO", "latitude": -12.57626, "longitude": 13.40547, "popIndex": 22},{"name": "Balombo", "country": "AO", "latitude": -12.35426, "longitude": 14.77232, "popIndex": 1},{"name": "Baia Farta", "country": "AO", "latitude": -12.60417, "longitude": 13.19667, "popIndex": 2},{"name": "Andulo", "country": "AO", "latitude": -11.48676, "longitude": 16.69663, "popIndex": 2},{"name": "Cafunfo", "country": "AO", "latitude": -8.7672, "longitude": 17.99572, "popIndex": 4},{"name": "Colonia Wanda", "country": "AR", "latitude": -25.97337, "longitude": -54.56304, "popIndex": 2},{"name": "Villa Ocampo", "country": "AR", "latitude": -28.48689, "longitude": -59.35423, "popIndex": 3},{"name": "Villaguay", "country": "AR", "latitude": -31.86767, "longitude": -59.02701, "popIndex": 1},{"name": "San Vicente", "country": "AR", "latitude": -26.61667, "longitude": -54.13333, "popIndex": 2},{"name": "Santa Elena", "country": "AR", "latitude": -30.94432, "longitude": -59.78832, "popIndex": 1},{"name": "San Pedro", "country": "AR", "latitude": -26.6218, "longitude": -54.10902, "popIndex": 2},{"name": "San Javier", "country": "AR", "latitude": -30.57781, "longitude": -59.9317, "popIndex": 3},{"name": "Reconquista", "country": "AR", "latitude": -29.15, "longitude": -59.65, "popIndex": 3},{"name": "Puerto Rico", "country": "AR", "latitude": -26.8089, "longitude": -55.02147, "popIndex": 2},{"name": "Puerto Iguazu", "country": "AR", "latitude": -25.59912, "longitude": -54.57355, "popIndex": 2},{"name": "Puerto Esperanza", "country": "AR", "latitude": -26.02267, "longitude": -54.61356, "popIndex": 2},{"name": "Puerto Eldorado", "country": "AR", "latitude": -26.40843, "longitude": -54.69463, "popIndex": 2},{"name": "Posadas", "country": "AR", "latitude": -27.36708, "longitude": -55.89608, "popIndex": 2},{"name": "Pirane", "country": "AR", "latitude": -25.73271, "longitude": -59.10989, "popIndex": 1},{"name": "Obera", "country": "AR", "latitude": -27.48683, "longitude": -55.11994, "popIndex": 2},{"name": "Montecarlo", "country": "AR", "latitude": -26.56849, "longitude": -54.7579, "popIndex": 2},{"name": "La Paz", "country": "AR", "latitude": -30.74179, "longitude": -59.64517, "popIndex": 1},{"name": "Jardin America", "country": "AR", "latitude": -27.04346, "longitude": -55.22698, "popIndex": 2},{"name": "Gualeguaychu", "country": "AR", "latitude": -33.00777, "longitude": -58.51836, "popIndex": 1},{"name": "Gualeguay", "country": "AR", "latitude": -33.14091, "longitude": -59.31257, "popIndex": 1},{"name": "Garupa", "country": "AR", "latitude": -27.48315, "longitude": -55.82924, "popIndex": 2},{"name": "Formosa", "country": "AR", "latitude": -26.18489, "longitude": -58.17313, "popIndex": 1},{"name": "Federal", "country": "AR", "latitude": -30.95619, "longitude": -58.7797, "popIndex": 1},{"name": "El Soberbio", "country": "AR", "latitude": -27.29662, "longitude": -54.19811, "popIndex": 2},{"name": "Concordia", "country": "AR", "latitude": -31.39195, "longitude": -58.01706, "popIndex": 1},{"name": "Concepcion del Uruguay", "country": "AR", "latitude": -32.48463, "longitude": -58.23217, "popIndex": 1},{"name": "Chajari", "country": "AR", "latitude": -30.75482, "longitude": -57.98196, "popIndex": 1},{"name": "Buenos Aires", "country": "AR", "latitude": -34.61315, "longitude": -58.37723, "popIndex": 116},{"name": "Avellaneda", "country": "AR", "latitude": -29.11761, "longitude": -59.65834, "popIndex": 3},{"name": "Aristobulo del Valle", "country": "AR", "latitude": -27.09571, "longitude": -54.89344, "popIndex": 2},{"name": "Zapala", "country": "AR", "latitude": -38.90056, "longitude": -70.06674, "popIndex": 2},{"name": "Yerba Buena", "country": "AR", "latitude": -26.81298, "longitude": -65.29543, "popIndex": 4},{"name": "Villa Regina", "country": "AR", "latitude": -39.09631, "longitude": -67.08374, "popIndex": 2},{"name": "Villa Paula de Sarmiento", "country": "AR", "latitude": -31.4933, "longitude": -68.53838, "popIndex": 3},{"name": "Villa Constitucion", "country": "AR", "latitude": -33.22778, "longitude": -60.3297, "popIndex": 3},{"name": "Viedma", "country": "AR", "latitude": -40.81345, "longitude": -62.99668, "popIndex": 2},{"name": "Victoria", "country": "AR", "latitude": -32.61841, "longitude": -60.15478, "popIndex": 1},{"name": "Vera", "country": "AR", "latitude": -29.4593, "longitude": -60.21261, "popIndex": 3},{"name": "Venado Tuerto", "country": "AR", "latitude": -33.74556, "longitude": -61.96885, "popIndex": 3},{"name": "Ushuaia", "country": "AR", "latitude": -54.81084, "longitude": -68.31591, "popIndex": 4},{"name": "Trelew", "country": "AR", "latitude": -43.24895, "longitude": -65.30505, "popIndex": 1},{"name": "Termas de Rio Hondo", "country": "AR", "latitude": -27.49362, "longitude": -64.85972, "popIndex": 3},{"name": "Tartagal", "country": "AR", "latitude": -22.51682, "longitude": -63.8056, "popIndex": 3},{"name": "Tafi Viejo", "country": "AR", "latitude": -26.7333, "longitude": -65.26146, "popIndex": 4},{"name": "Sunchales", "country": "AR", "latitude": -30.94404, "longitude": -61.56148, "popIndex": 3},{"name": "Santo Tome", "country": "AR", "latitude": -31.66274, "longitude": -60.7653, "popIndex": 3},{"name": "Santiago del Estero", "country": "AR", "latitude": -27.79511, "longitude": -64.26149, "popIndex": 3},{"name": "Santa Rosa", "country": "AR", "latitude": -36.61667, "longitude": -64.28333, "popIndex": 2},{"name": "Santa Lucia", "country": "AR", "latitude": -31.54055, "longitude": -68.49794, "popIndex": 3},{"name": "Santa Fe", "country": "AR", "latitude": -31.64881, "longitude": -60.70868, "popIndex": 3},{"name": "San Salvador de Jujuy", "country": "AR", "latitude": -24.19457, "longitude": -65.29712, "popIndex": 2},{"name": "San Ramon de la Nueva Oran", "country": "AR", "latitude": -23.13705, "longitude": -64.32426, "popIndex": 3},{"name": "San Rafael", "country": "AR", "latitude": -34.61531, "longitude": -68.33238, "popIndex": 2},{"name": "San Pedro de Jujuy", "country": "AR", "latitude": -24.23127, "longitude": -64.86614, "popIndex": 2},{"name": "San Miguel de Tucuman", "country": "AR", "latitude": -26.82414, "longitude": -65.2226, "popIndex": 4},{"name": "San Martin de los Andes", "country": "AR", "latitude": -40.15789, "longitude": -71.35337, "popIndex": 2},{"name": "San Martin", "country": "AR", "latitude": -33.08338, "longitude": -68.47312, "popIndex": 2},{"name": "San Luis", "country": "AR", "latitude": -33.29501, "longitude": -66.33563, "popIndex": 3},{"name": "San Justo", "country": "AR", "latitude": -30.78913, "longitude": -60.59189, "popIndex": 3},{"name": "San Juan", "country": "AR", "latitude": -31.5375, "longitude": -68.53639, "popIndex": 3},{"name": "San Jose de Jachal", "country": "AR", "latitude": -30.24162, "longitude": -68.74662, "popIndex": 3},{"name": "San Jorge", "country": "AR", "latitude": -31.89618, "longitude": -61.85984, "popIndex": 3},{"name": "San Antonio Oeste", "country": "AR", "latitude": -40.73193, "longitude": -64.94769, "popIndex": 2},{"name": "Salta", "country": "AR", "latitude": -24.7859, "longitude": -65.41166, "popIndex": 3},{"name": "Rufino", "country": "AR", "latitude": -34.26827, "longitude": -62.71262, "popIndex": 3},{"name": "Rosario", "country": "AR", "latitude": -32.94682, "longitude": -60.63932, "popIndex": 3},{"name": "Rio Grande", "country": "AR", "latitude": -53.78773, "longitude": -67.70975, "popIndex": 4},{"name": "Rio Gallegos", "country": "AR", "latitude": -51.62261, "longitude": -69.21813, "popIndex": 3},{"name": "Rawson", "country": "AR", "latitude": -43.30016, "longitude": -65.10228, "popIndex": 1},{"name": "Rafaela", "country": "AR", "latitude": -31.25033, "longitude": -61.4867, "popIndex": 3},{"name": "Puerto Madryn", "country": "AR", "latitude": -42.76848, "longitude": -65.03827, "popIndex": 1},{"name": "Pocito", "country": "AR", "latitude": -31.68333, "longitude": -68.58333, "popIndex": 3},{"name": "Plottier", "country": "AR", "latitude": -38.96667, "longitude": -68.23333, "popIndex": 2},{"name": "Perez", "country": "AR", "latitude": -32.99835, "longitude": -60.76791, "popIndex": 3},{"name": "Parana", "country": "AR", "latitude": -31.73271, "longitude": -60.52897, "popIndex": 1},{"name": "Palpala", "country": "AR", "latitude": -24.25798, "longitude": -65.21358, "popIndex": 2},{"name": "Neuquen", "country": "AR", "latitude": -38.95161, "longitude": -68.0591, "popIndex": 2},{"name": "Monteros", "country": "AR", "latitude": -27.16825, "longitude": -65.49892, "popIndex": 4},{"name": "Mendoza", "country": "AR", "latitude": -32.89084, "longitude": -68.82717, "popIndex": 2},{"name": "Libertador General San Martin", "country": "AR", "latitude": -23.81305, "longitude": -64.79353, "popIndex": 2},{"name": "La Rioja", "country": "AR", "latitude": -29.41105, "longitude": -66.85067, "popIndex": 2},{"name": "Joaquin V. Gonzalez", "country": "AR", "latitude": -25.11364, "longitude": -64.12628, "popIndex": 3},{"name": "Granadero Baigorria", "country": "AR", "latitude": -32.85683, "longitude": -60.71754, "popIndex": 3},{"name": "Gobernador Galvez", "country": "AR", "latitude": -33.03016, "longitude": -60.64045, "popIndex": 3},{"name": "General Roca", "country": "AR", "latitude": -39.03333, "longitude": -67.58333, "popIndex": 2},{"name": "General Pico", "country": "AR", "latitude": -35.6593, "longitude": -63.75787, "popIndex": 2},{"name": "General Mosconi", "country": "AR", "latitude": -22.59617, "longitude": -63.811, "popIndex": 3},{"name": "Galvez", "country": "AR", "latitude": -32.02927, "longitude": -61.22103, "popIndex": 3},{"name": "Firmat", "country": "AR", "latitude": -33.45937, "longitude": -61.4832, "popIndex": 3},{"name": "Famailla", "country": "AR", "latitude": -27.05452, "longitude": -65.40189, "popIndex": 4},{"name": "Esquel", "country": "AR", "latitude": -42.91147, "longitude": -71.31947, "popIndex": 1},{"name": "Esperanza", "country": "AR", "latitude": -31.4488, "longitude": -60.93173, "popIndex": 3},{"name": "Embarcacion", "country": "AR", "latitude": -23.21003, "longitude": -64.09965, "popIndex": 3},{"name": "El Bolson", "country": "AR", "latitude": -41.96051, "longitude": -71.53336, "popIndex": 2},{"name": "Diamante", "country": "AR", "latitude": -32.0671, "longitude": -60.64267, "popIndex": 1},{"name": "Cutral-Co", "country": "AR", "latitude": -38.93424, "longitude": -69.23052, "popIndex": 2},{"name": "Crespo", "country": "AR", "latitude": -32.03077, "longitude": -60.30619, "popIndex": 1},{"name": "Coronda", "country": "AR", "latitude": -31.97263, "longitude": -60.91983, "popIndex": 3},{"name": "Comodoro Rivadavia", "country": "AR", "latitude": -45.86256, "longitude": -67.494, "popIndex": 1},{"name": "Cipolletti", "country": "AR", "latitude": -38.93392, "longitude": -67.99032, "popIndex": 2},{"name": "Cinco Saltos", "country": "AR", "latitude": -38.82225, "longitude": -68.06293, "popIndex": 2},{"name": "Chimbas", "country": "AR", "latitude": -31.49313, "longitude": -68.53263, "popIndex": 3},{"name": "Chilecito", "country": "AR", "latitude": -29.16195, "longitude": -67.4974, "popIndex": 2},{"name": "Centenario", "country": "AR", "latitude": -38.82955, "longitude": -68.1318, "popIndex": 2},{"name": "Caucete", "country": "AR", "latitude": -31.6515, "longitude": -68.28216, "popIndex": 3},{"name": "Catriel", "country": "AR", "latitude": -37.87552, "longitude": -67.79451, "popIndex": 2},{"name": "Casilda", "country": "AR", "latitude": -33.04417, "longitude": -61.16806, "popIndex": 3},{"name": "Carcarana", "country": "AR", "latitude": -32.85679, "longitude": -61.15331, "popIndex": 3},{"name": "Capitan Bermudez", "country": "AR", "latitude": -32.82262, "longitude": -60.71852, "popIndex": 3},{"name": "Canada de Gomez", "country": "AR", "latitude": -32.81636, "longitude": -61.39493, "popIndex": 3},{"name": "Caleta Olivia", "country": "AR", "latitude": -46.44785, "longitude": -67.52274, "popIndex": 3},{"name": "Bella Vista", "country": "AR", "latitude": -27.03424, "longitude": -65.30196, "popIndex": 4},{"name": "Arroyo Seco", "country": "AR", "latitude": -33.15489, "longitude": -60.50863, "popIndex": 3},{"name": "Anatuya", "country": "AR", "latitude": -28.4602, "longitude": -62.83354, "popIndex": 3},{"name": "Allen", "country": "AR", "latitude": -38.97736, "longitude": -67.82714, "popIndex": 2},{"name": "Alderetes", "country": "AR", "latitude": -26.81787, "longitude": -65.14202, "popIndex": 4},{"name": "Albardon", "country": "AR", "latitude": -31.43722, "longitude": -68.52556, "popIndex": 3},{"name": "Aguilares", "country": "AR", "latitude": -27.4315, "longitude": -65.61465, "popIndex": 4},{"name": "Villa Mercedes", "country": "AR", "latitude": -33.67571, "longitude": -65.45783, "popIndex": 3},{"name": "San Carlos de Bariloche", "country": "AR", "latitude": -41.14557, "longitude": -71.30822, "popIndex": 2},{"name": "Scarborough", "country": "AU", "latitude": -31.89578, "longitude": 115.76431, "popIndex": 2},{"name": "Rockingham", "country": "AU", "latitude": -32.27682, "longitude": 115.72978, "popIndex": 2},{"name": "Perth", "country": "AU", "latitude": -31.95224, "longitude": 115.8614, "popIndex": 2},{"name": "Mount Isa", "country": "AU", "latitude": -20.72523, "longitude": 139.49727, "popIndex": 1},{"name": "Morphett Vale", "country": "AU", "latitude": -35.13333, "longitude": 138.51667, "popIndex": 2},{"name": "Mandurah", "country": "AU", "latitude": -32.5269, "longitude": 115.7217, "popIndex": 2},{"name": "Kwinana", "country": "AU", "latitude": -32.23013, "longitude": 115.78128, "popIndex": 2},{"name": "Gosnells", "country": "AU", "latitude": -32.081, "longitude": 116.0054, "popIndex": 2},{"name": "Geraldton", "country": "AU", "latitude": -28.77897, "longitude": 114.61459, "popIndex": 2},{"name": "Gawler", "country": "AU", "latitude": -34.60251, "longitude": 138.74902, "popIndex": 2},{"name": "Darwin", "country": "AU", "latitude": -12.46113, "longitude": 130.84185, "popIndex": 3},{"name": "Byford", "country": "AU", "latitude": -32.22099, "longitude": 116.009, "popIndex": 2},{"name": "Busselton", "country": "AU", "latitude": -33.65249, "longitude": 115.3455, "popIndex": 2},{"name": "Bunbury", "country": "AU", "latitude": -33.32711, "longitude": 115.64137, "popIndex": 2},{"name": "Australind", "country": "AU", "latitude": -33.2792, "longitude": 115.71504, "popIndex": 2},{"name": "Alice Springs", "country": "AU", "latitude": -23.69748, "longitude": 133.88362, "popIndex": 3},{"name": "Albany", "country": "AU", "latitude": -35.02692, "longitude": 117.88369, "popIndex": 2},{"name": "Adelaide", "country": "AU", "latitude": -34.92866, "longitude": 138.59863, "popIndex": 2},{"name": "Wollert", "country": "AU", "latitude": -37.58333, "longitude": 145.03333, "popIndex": 1},{"name": "Wodonga", "country": "AU", "latitude": -36.12179, "longitude": 146.88809, "popIndex": 1},{"name": "Werribee", "country": "AU", "latitude": -37.9, "longitude": 144.66667, "popIndex": 1},{"name": "Warwick", "country": "AU", "latitude": -28.21901, "longitude": 152.03438, "popIndex": 1},{"name": "Warrnambool", "country": "AU", "latitude": -38.38176, "longitude": 142.48799, "popIndex": 1},{"name": "Wangaratta", "country": "AU", "latitude": -36.35846, "longitude": 146.32056, "popIndex": 1},{"name": "Upper Coomera", "country": "AU", "latitude": -27.87683, "longitude": 153.28572, "popIndex": 1},{"name": "Truganina", "country": "AU", "latitude": -37.81667, "longitude": 144.75, "popIndex": 1},{"name": "Townsville", "country": "AU", "latitude": -19.26639, "longitude": 146.80569, "popIndex": 1},{"name": "Toowoomba", "country": "AU", "latitude": -27.56056, "longitude": 151.95386, "popIndex": 1},{"name": "Sydney", "country": "AU", "latitude": -33.86785, "longitude": 151.20732, "popIndex": 209},{"name": "Surfers Paradise", "country": "AU", "latitude": -28.00274, "longitude": 153.42999, "popIndex": 1},{"name": "Southport", "country": "AU", "latitude": -27.96724, "longitude": 153.39796, "popIndex": 1},{"name": "Saint Kilda", "country": "AU", "latitude": -37.8676, "longitude": 144.98099, "popIndex": 1},{"name": "Rockhampton", "country": "AU", "latitude": -23.38032, "longitude": 150.50595, "popIndex": 1},{"name": "Richmond", "country": "AU", "latitude": -37.81819, "longitude": 145.00176, "popIndex": 1},{"name": "Port Melbourne", "country": "AU", "latitude": -37.83961, "longitude": 144.94228, "popIndex": 1},{"name": "Nerang", "country": "AU", "latitude": -27.98941, "longitude": 153.33633, "popIndex": 1},{"name": "Narangba", "country": "AU", "latitude": -27.20338, "longitude": 152.95923, "popIndex": 1},{"name": "Mount Martha", "country": "AU", "latitude": -38.26667, "longitude": 145.01667, "popIndex": 1},{"name": "Mount Gambier", "country": "AU", "latitude": -37.8318, "longitude": 140.77919, "popIndex": 2},{"name": "Mornington", "country": "AU", "latitude": -38.21792, "longitude": 145.03876, "popIndex": 1},{"name": "Morayfield", "country": "AU", "latitude": -27.10876, "longitude": 152.94907, "popIndex": 1},{"name": "South Morang", "country": "AU", "latitude": -37.65, "longitude": 145.1, "popIndex": 1},{"name": "Moonee Ponds", "country": "AU", "latitude": -37.76667, "longitude": 144.91667, "popIndex": 1},{"name": "Mernda", "country": "AU", "latitude": -37.60075, "longitude": 145.09555, "popIndex": 1},{"name": "Maryborough", "country": "AU", "latitude": -25.54073, "longitude": 152.70493, "popIndex": 1},{"name": "Mackay", "country": "AU", "latitude": -21.15345, "longitude": 149.16554, "popIndex": 1},{"name": "Lilydale", "country": "AU", "latitude": -37.75, "longitude": 145.35, "popIndex": 1},{"name": "Launceston", "country": "AU", "latitude": -41.43876, "longitude": 147.13467, "popIndex": 3},{"name": "Hobart", "country": "AU", "latitude": -42.87936, "longitude": 147.32941, "popIndex": 3},{"name": "Gold Coast", "country": "AU", "latitude": -28.00029, "longitude": 153.43088, "popIndex": 1},{"name": "Gladstone", "country": "AU", "latitude": -23.84852, "longitude": 151.25775, "popIndex": 1},{"name": "Essendon", "country": "AU", "latitude": -37.74981, "longitude": 144.9109, "popIndex": 1},{"name": "Eltham", "country": "AU", "latitude": -37.73333, "longitude": 145.15, "popIndex": 1},{"name": "Eight Mile Plains", "country": "AU", "latitude": -27.58333, "longitude": 153.1, "popIndex": 1},{"name": "Deception Bay", "country": "AU", "latitude": -27.19354, "longitude": 153.02631, "popIndex": 1},{"name": "Coburg", "country": "AU", "latitude": -37.75, "longitude": 144.96667, "popIndex": 1},{"name": "Capalaba", "country": "AU", "latitude": -27.54333, "longitude": 153.20287, "popIndex": 1},{"name": "Canberra", "country": "AU", "latitude": -35.28346, "longitude": 149.12807, "popIndex": 15},{"name": "Cairns", "country": "AU", "latitude": -16.92366, "longitude": 145.76613, "popIndex": 1},{"name": "Caboolture", "country": "AU", "latitude": -27.08465, "longitude": 152.9511, "popIndex": 1},{"name": "Burnie", "country": "AU", "latitude": -41.05584, "longitude": 145.90375, "popIndex": 2},{"name": "Bundaberg", "country": "AU", "latitude": -24.86621, "longitude": 152.3479, "popIndex": 1},{"name": "Buderim", "country": "AU", "latitude": -26.68443, "longitude": 153.05705, "popIndex": 1},{"name": "Brunswick", "country": "AU", "latitude": -37.76667, "longitude": 144.96667, "popIndex": 1},{"name": "Brisbane", "country": "AU", "latitude": -27.46794, "longitude": 153.02809, "popIndex": 1},{"name": "Albany Creek", "country": "AU", "latitude": -27.35364, "longitude": 152.96848, "popIndex": 1},{"name": "Maroochydore", "country": "AU", "latitude": -26.66008, "longitude": 153.09953, "popIndex": 1},{"name": "Palmerston", "country": "AU", "latitude": -12.48602, "longitude": 130.9833, "popIndex": 3},{"name": "Hervey Bay", "country": "AU", "latitude": -25.28762, "longitude": 152.76936, "popIndex": 1},{"name": "Logan City", "country": "AU", "latitude": -27.63917, "longitude": 153.10944, "popIndex": 1},{"name": "Malvern East", "country": "AU", "latitude": -37.87397, "longitude": 145.04253, "popIndex": 1},{"name": "Robina", "country": "AU", "latitude": -28.07071, "longitude": 153.39329, "popIndex": 1},{"name": "Adelaide city centre", "country": "AU", "latitude": -34.92873, "longitude": 138.60334, "popIndex": 2},{"name": "Oranjestad", "country": "AW", "latitude": 12.52398, "longitude": -70.02703, "popIndex": 1},{"name": "Xankandi", "country": "AZ", "latitude": 39.8177, "longitude": 46.7528, "popIndex": 2},{"name": "Salyan", "country": "AZ", "latitude": 39.59621, "longitude": 48.98479, "popIndex": 1},{"name": "Saatli", "country": "AZ", "latitude": 39.93214, "longitude": 48.36892, "popIndex": 3},{"name": "Naxcivan", "country": "AZ", "latitude": 39.20889, "longitude": 45.41222, "popIndex": 307},{"name": "Lerik", "country": "AZ", "latitude": 38.77388, "longitude": 48.41497, "popIndex": 3},{"name": "Lankaran", "country": "AZ", "latitude": 38.75428, "longitude": 48.85062, "popIndex": 10},{"name": "Imishli", "country": "AZ", "latitude": 39.87095, "longitude": 48.05995, "popIndex": 1},{"name": "Fizuli", "country": "AZ", "latitude": 39.60094, "longitude": 47.14529, "popIndex": 1},{"name": "Jalilabad", "country": "AZ", "latitude": 39.20963, "longitude": 48.49186, "popIndex": 1},{"name": "Sirvan", "country": "AZ", "latitude": 39.93778, "longitude": 48.929, "popIndex": 3},{"name": "Agdam", "country": "AZ", "latitude": 39.99096, "longitude": 46.92736, "popIndex": 2},{"name": "Zaqatala", "country": "AZ", "latitude": 41.6316, "longitude": 46.64479, "popIndex": 1},{"name": "Yevlakh", "country": "AZ", "latitude": 40.61832, "longitude": 47.15014, "popIndex": 5},{"name": "Xacmaz", "country": "AZ", "latitude": 41.46426, "longitude": 48.80565, "popIndex": 1},{"name": "Tovuz", "country": "AZ", "latitude": 40.99249, "longitude": 45.62838, "popIndex": 7},{"name": "Sumqayit", "country": "AZ", "latitude": 40.58972, "longitude": 49.66861, "popIndex": 14},{"name": "Qaracuxur", "country": "AZ", "latitude": 40.39667, "longitude": 49.97361, "popIndex": 3},{"name": "Shamkhor", "country": "AZ", "latitude": 40.82975, "longitude": 46.0178, "popIndex": 1},{"name": "Shamakhi", "country": "AZ", "latitude": 40.63141, "longitude": 48.64137, "popIndex": 1},{"name": "Sheki", "country": "AZ", "latitude": 41.19194, "longitude": 47.17056, "popIndex": 3},{"name": "Sabirabad", "country": "AZ", "latitude": 40.00869, "longitude": 48.47701, "popIndex": 1},{"name": "Mingelchaur", "country": "AZ", "latitude": 40.76395, "longitude": 47.05953, "popIndex": 4},{"name": "Mastaga", "country": "AZ", "latitude": 40.52983, "longitude": 50.00616, "popIndex": 2},{"name": "Lokbatan", "country": "AZ", "latitude": 40.3256, "longitude": 49.73376, "popIndex": 1},{"name": "Khirdalan", "country": "AZ", "latitude": 40.44808, "longitude": 49.75502, "popIndex": 2},{"name": "Ismayilli", "country": "AZ", "latitude": 40.78485, "longitude": 48.15141, "popIndex": 1},{"name": "Goeycay", "country": "AZ", "latitude": 40.65055, "longitude": 47.74219, "popIndex": 2},{"name": "Hovsan", "country": "AZ", "latitude": 40.37444, "longitude": 50.08528, "popIndex": 1},{"name": "Ganja", "country": "AZ", "latitude": 40.68278, "longitude": 46.36056, "popIndex": 13},{"name": "Barda", "country": "AZ", "latitude": 40.37577, "longitude": 47.12619, "popIndex": 1},{"name": "Bilajari", "country": "AZ", "latitude": 40.4444, "longitude": 49.80566, "popIndex": 2},{"name": "Baku", "country": "AZ", "latitude": 40.37767, "longitude": 49.89201, "popIndex": 45},{"name": "Amirdzhan", "country": "AZ", "latitude": 40.42639, "longitude": 49.98361, "popIndex": 1},{"name": "Agdzhabedy", "country": "AZ", "latitude": 40.05015, "longitude": 47.45937, "popIndex": 2},{"name": "Bakixanov", "country": "AZ", "latitude": 40.41894, "longitude": 49.96693, "popIndex": 3},{"name": "Zenica", "country": "BA", "latitude": 44.20169, "longitude": 17.90397, "popIndex": 7},{"name": "Tuzla", "country": "BA", "latitude": 44.53842, "longitude": 18.66709, "popIndex": 6},{"name": "Trebinje", "country": "BA", "latitude": 42.71197, "longitude": 18.34362, "popIndex": 1},{"name": "Travnik", "country": "BA", "latitude": 44.22637, "longitude": 17.66583, "popIndex": 1},{"name": "Sarajevo", "country": "BA", "latitude": 43.84864, "longitude": 18.35644, "popIndex": 134},{"name": "Prijedor", "country": "BA", "latitude": 44.97991, "longitude": 16.71401, "popIndex": 1},{"name": "Mostar", "country": "BA", "latitude": 43.34333, "longitude": 17.80806, "popIndex": 134},{"name": "Lukavac", "country": "BA", "latitude": 44.54245, "longitude": 18.52618, "popIndex": 134},{"name": "Doboj", "country": "BA", "latitude": 44.73179, "longitude": 18.08698, "popIndex": 1},{"name": "Bugojno", "country": "BA", "latitude": 44.05722, "longitude": 17.45083, "popIndex": 134},{"name": "Brcko", "country": "BA", "latitude": 44.86995, "longitude": 18.81012, "popIndex": 2},{"name": "Bijeljina", "country": "BA", "latitude": 44.75874, "longitude": 19.21437, "popIndex": 2},{"name": "Bihac", "country": "BA", "latitude": 44.81694, "longitude": 15.87083, "popIndex": 134},{"name": "Banja Luka", "country": "BA", "latitude": 44.77842, "longitude": 17.19386, "popIndex": 9},{"name": "Bridgetown", "country": "BB", "latitude": 13.10732, "longitude": -59.62021, "popIndex": 4},{"name": "Uttar Char Fasson", "country": "BD", "latitude": 22.22647, "longitude": 90.71275, "popIndex": 2},{"name": "Yalgo", "country": "BF", "latitude": 12.93333, "longitude": -0.85, "popIndex": 1},{"name": "Niangoloko", "country": "BF", "latitude": 10.28333, "longitude": -4.91667, "popIndex": 1},{"name": "Gaoua", "country": "BF", "latitude": 10.33137, "longitude": -3.18202, "popIndex": 2},{"name": "Asparuhovo", "country": "BG", "latitude": 43.18067, "longitude": 27.88823, "popIndex": 1},{"name": "Sitrah", "country": "BH", "latitude": 26.15472, "longitude": 50.62056, "popIndex": 2},{"name": "Madinat `Isa", "country": "BH", "latitude": 26.17361, "longitude": 50.54778, "popIndex": 2},{"name": "Jidd Hafs", "country": "BH", "latitude": 26.21861, "longitude": 50.54778, "popIndex": 1},{"name": "Madinat Hamad", "country": "BH", "latitude": 26.11528, "longitude": 50.50694, "popIndex": 2},{"name": "Dar Kulayb", "country": "BH", "latitude": 26.06861, "longitude": 50.50389, "popIndex": 3},{"name": "Al Muharraq", "country": "BH", "latitude": 26.25722, "longitude": 50.61194, "popIndex": 4},{"name": "Manama", "country": "BH", "latitude": 26.22787, "longitude": 50.58565, "popIndex": 6},{"name": "Ar Rifa'", "country": "BH", "latitude": 26.13, "longitude": 50.555, "popIndex": 8},{"name": "Rumonge", "country": "BI", "latitude": -3.9736, "longitude": 29.4386, "popIndex": 366},{"name": "Bujumbura", "country": "BI", "latitude": -3.38193, "longitude": 29.36142, "popIndex": 490},{"name": "Gitega", "country": "BI", "latitude": -3.42708, "longitude": 29.92463, "popIndex": 307},{"name": "Karuzi", "country": "BI", "latitude": -3.10139, "longitude": 30.16278, "popIndex": 367},{"name": "Bubanza", "country": "BI", "latitude": -3.0804, "longitude": 29.391, "popIndex": 307},{"name": "Cibitoke", "country": "BI", "latitude": -2.8869, "longitude": 29.1248, "popIndex": 307},{"name": "Ngozi", "country": "BI", "latitude": -2.9075, "longitude": 29.8306, "popIndex": 307},{"name": "Kayanza", "country": "BI", "latitude": -2.9221, "longitude": 29.6293, "popIndex": 307},{"name": "Kirundo", "country": "BI", "latitude": -2.5845, "longitude": 30.0959, "popIndex": 363},{"name": "Zinvie", "country": "BJ", "latitude": 6.61738, "longitude": 2.35776, "popIndex": 315},{"name": "Ze", "country": "BJ", "latitude": 6.78333, "longitude": 2.3, "popIndex": 330},{"name": "Toviklin", "country": "BJ", "latitude": 6.88935, "longitude": 1.83722, "popIndex": 414},{"name": "Toukountouna", "country": "BJ", "latitude": 10.50279, "longitude": 1.37437, "popIndex": 315},{"name": "Tchaourou", "country": "BJ", "latitude": 8.88649, "longitude": 2.59753, "popIndex": 307},{"name": "Tanguieta", "country": "BJ", "latitude": 10.62118, "longitude": 1.26651, "popIndex": 315},{"name": "Sinende", "country": "BJ", "latitude": 10.34963, "longitude": 2.37906, "popIndex": 307},{"name": "Semi", "country": "BJ", "latitude": 6.36667, "longitude": 2.61667, "popIndex": 307},{"name": "Segbana", "country": "BJ", "latitude": 10.92821, "longitude": 3.69429, "popIndex": 414},{"name": "Save", "country": "BJ", "latitude": 8.03424, "longitude": 2.4866, "popIndex": 1},{"name": "Savalou", "country": "BJ", "latitude": 7.92807, "longitude": 1.97558, "popIndex": 2},{"name": "Sakete", "country": "BJ", "latitude": 6.73618, "longitude": 2.65866, "popIndex": 2},{"name": "Porto-Novo", "country": "BJ", "latitude": 6.49646, "longitude": 2.60359, "popIndex": 11},{"name": "Pobe", "country": "BJ", "latitude": 6.98008, "longitude": 2.6649, "popIndex": 307},{"name": "Perere", "country": "BJ", "latitude": 9.79721, "longitude": 2.98403, "popIndex": 307},{"name": "Pehonko", "country": "BJ", "latitude": 10.22746, "longitude": 2.00192, "popIndex": 307},{"name": "Parakou", "country": "BJ", "latitude": 9.33716, "longitude": 2.63031, "popIndex": 10},{"name": "Ouidah", "country": "BJ", "latitude": 6.36307, "longitude": 2.08506, "popIndex": 2},{"name": "Ouesse", "country": "BJ", "latitude": 8.48639, "longitude": 2.42872, "popIndex": 330},{"name": "Nikki", "country": "BJ", "latitude": 9.94009, "longitude": 3.21075, "popIndex": 307},{"name": "Ndali", "country": "BJ", "latitude": 9.8636, "longitude": 2.72094, "popIndex": 307},{"name": "Natitingou", "country": "BJ", "latitude": 10.30416, "longitude": 1.37962, "popIndex": 2},{"name": "Materi", "country": "BJ", "latitude": 10.69623, "longitude": 1.06307, "popIndex": 315},{"name": "Malanville", "country": "BJ", "latitude": 11.86819, "longitude": 3.38327, "popIndex": 315},{"name": "Lokossa", "country": "BJ", "latitude": 6.63869, "longitude": 1.71674, "popIndex": 307},{"name": "Kouande", "country": "BJ", "latitude": 6.4, "longitude": 2.06667, "popIndex": 1},{"name": "Ketou", "country": "BJ", "latitude": 7.36332, "longitude": 2.59978, "popIndex": 307},{"name": "Kerou", "country": "BJ", "latitude": 10.82578, "longitude": 2.10479, "popIndex": 307},{"name": "Kandi", "country": "BJ", "latitude": 11.13417, "longitude": 2.93861, "popIndex": 2},{"name": "Kalale", "country": "BJ", "latitude": 10.29275, "longitude": 3.38367, "popIndex": 307},{"name": "Godome", "country": "BJ", "latitude": 6.38948, "longitude": 2.34581, "popIndex": 315},{"name": "Glazoue", "country": "BJ", "latitude": 7.97252, "longitude": 2.22176, "popIndex": 315},{"name": "Ekpe", "country": "BJ", "latitude": 6.39209, "longitude": 2.53725, "popIndex": 3},{"name": "Djougou", "country": "BJ", "latitude": 9.70853, "longitude": 1.66598, "popIndex": 4},{"name": "Djidja", "country": "BJ", "latitude": 7.34436, "longitude": 1.93447, "popIndex": 330},{"name": "Dassa-Zoume", "country": "BJ", "latitude": 7.75, "longitude": 2.18333, "popIndex": 1},{"name": "Cove", "country": "BJ", "latitude": 7.22097, "longitude": 2.34017, "popIndex": 2},{"name": "Cotonou", "country": "BJ", "latitude": 6.36536, "longitude": 2.41833, "popIndex": 27},{"name": "Kopargo", "country": "BJ", "latitude": 9.84108, "longitude": 1.54231, "popIndex": 307},{"name": "Come", "country": "BJ", "latitude": 6.40764, "longitude": 1.88198, "popIndex": 2},{"name": "Boukoumbe", "country": "BJ", "latitude": 10.17711, "longitude": 1.10621, "popIndex": 414},{"name": "Bohicon", "country": "BJ", "latitude": 7.17826, "longitude": 2.0667, "popIndex": 307},{"name": "Bembereke", "country": "BJ", "latitude": 10.22827, "longitude": 2.66335, "popIndex": 307},{"name": "Bassila", "country": "BJ", "latitude": 9.00814, "longitude": 1.6654, "popIndex": 414},{"name": "Banikoara", "country": "BJ", "latitude": 11.29845, "longitude": 2.43856, "popIndex": 307},{"name": "Banigbe", "country": "BJ", "latitude": 6.64756, "longitude": 2.70695, "popIndex": 363},{"name": "Avrankou", "country": "BJ", "latitude": 6.55591, "longitude": 2.65123, "popIndex": 363},{"name": "Athieme", "country": "BJ", "latitude": 6.5808, "longitude": 1.6696, "popIndex": 307},{"name": "Aplahoue", "country": "BJ", "latitude": 6.93333, "longitude": 1.68333, "popIndex": 414},{"name": "Allada", "country": "BJ", "latitude": 6.66547, "longitude": 2.15138, "popIndex": 330},{"name": "Abomey-Calavi", "country": "BJ", "latitude": 6.44852, "longitude": 2.35566, "popIndex": 315},{"name": "Abomey", "country": "BJ", "latitude": 7.18286, "longitude": 1.99119, "popIndex": 5},{"name": "Ouake", "country": "BJ", "latitude": 9.66167, "longitude": 1.38472, "popIndex": 307},{"name": "Seria", "country": "BN", "latitude": 4.60637, "longitude": 114.32476, "popIndex": 1},{"name": "Kuala Belait", "country": "BN", "latitude": 4.58361, "longitude": 114.2312, "popIndex": 1},{"name": "Bandar Seri Begawan", "country": "BN", "latitude": 4.89035, "longitude": 114.94006, "popIndex": 3},{"name": "Vinto", "country": "BO", "latitude": -17.39141, "longitude": -66.31681, "popIndex": 2},{"name": "Villazon", "country": "BO", "latitude": -22.08659, "longitude": -65.59422, "popIndex": 1},{"name": "Villamontes", "country": "BO", "latitude": -21.26235, "longitude": -63.46903, "popIndex": 2},{"name": "Trinidad", "country": "BO", "latitude": -14.83333, "longitude": -64.9, "popIndex": 3},{"name": "Tiquipaya", "country": "BO", "latitude": -17.33801, "longitude": -66.21579, "popIndex": 3},{"name": "Tarija", "country": "BO", "latitude": -21.53549, "longitude": -64.72956, "popIndex": 6},{"name": "Sucre", "country": "BO", "latitude": -19.03332, "longitude": -65.26274, "popIndex": 9},{"name": "Sipe Sipe", "country": "BO", "latitude": -17.45419, "longitude": -66.35737, "popIndex": 2},{"name": "Santa Cruz de la Sierra", "country": "BO", "latitude": -17.78629, "longitude": -63.18117, "popIndex": 73},{"name": "Sacaba", "country": "BO", "latitude": -17.39799, "longitude": -66.03825, "popIndex": 7},{"name": "Quillacollo", "country": "BO", "latitude": -17.39228, "longitude": -66.27838, "popIndex": 7},{"name": "Potosi", "country": "BO", "latitude": -19.58361, "longitude": -65.75306, "popIndex": 6},{"name": "Oruro", "country": "BO", "latitude": -17.98333, "longitude": -67.15, "popIndex": 8},{"name": "Montero", "country": "BO", "latitude": -17.33874, "longitude": -63.25093, "popIndex": 4},{"name": "Mizque", "country": "BO", "latitude": -17.94101, "longitude": -65.34016, "popIndex": 1},{"name": "Llallagua", "country": "BO", "latitude": -18.42494, "longitude": -66.57778, "popIndex": 1},{"name": "La Paz", "country": "BO", "latitude": -16.5, "longitude": -68.15, "popIndex": 80},{"name": "Colcapirhua", "country": "BO", "latitude": -17.3857, "longitude": -66.23814, "popIndex": 2},{"name": "Cochabamba", "country": "BO", "latitude": -17.3895, "longitude": -66.1568, "popIndex": 34},{"name": "Cobija", "country": "BO", "latitude": -11.02671, "longitude": -68.76918, "popIndex": 1},{"name": "Caranavi", "country": "BO", "latitude": -15.83403, "longitude": -67.56586, "popIndex": 447},{"name": "Camiri", "country": "BO", "latitude": -20.04063, "longitude": -63.52396, "popIndex": 1},{"name": "Bermejo", "country": "BO", "latitude": -22.73206, "longitude": -64.33724, "popIndex": 1},{"name": "Vitoria do Mearim", "country": "BR", "latitude": -3.46222, "longitude": -44.87056, "popIndex": 85},{"name": "Vitoria de Santo Antao", "country": "BR", "latitude": -8.11806, "longitude": -35.29139, "popIndex": 105},{"name": "Viseu", "country": "BR", "latitude": -1.19667, "longitude": -46.14, "popIndex": 60},{"name": "Conde", "country": "BR", "latitude": -7.25972, "longitude": -34.9075, "popIndex": 100},{"name": "Vicosa do Ceara", "country": "BR", "latitude": -3.56222, "longitude": -41.09222, "popIndex": 93},{"name": "Vicosa", "country": "BR", "latitude": -9.37139, "longitude": -36.24083, "popIndex": 108},{"name": "Viana", "country": "BR", "latitude": -3.22028, "longitude": -45.00361, "popIndex": 85},{"name": "Varzea Alegre", "country": "BR", "latitude": -5.35, "longitude": -40.38333, "popIndex": 92},{"name": "Valenca do Piaui", "country": "BR", "latitude": -6.4075, "longitude": -41.74556, "popIndex": 88},{"name": "Uniao dos Palmares", "country": "BR", "latitude": -9.16278, "longitude": -36.03194, "popIndex": 108},{"name": "Tuntum", "country": "BR", "latitude": -5.25806, "longitude": -44.64889, "popIndex": 84},{"name": "Tucurui", "country": "BR", "latitude": -3.76585, "longitude": -49.67923, "popIndex": 60},{"name": "Tucuma", "country": "BR", "latitude": -0.18333, "longitude": -50.05, "popIndex": 60},{"name": "Trairi", "country": "BR", "latitude": -3.27778, "longitude": -39.26889, "popIndex": 93},{"name": "Toritama", "country": "BR", "latitude": -8.00667, "longitude": -36.05667, "popIndex": 105},{"name": "Timon", "country": "BR", "latitude": -5.09417, "longitude": -42.83667, "popIndex": 84},{"name": "Timbiras", "country": "BR", "latitude": -4.25528, "longitude": -43.94056, "popIndex": 84},{"name": "Timbauba", "country": "BR", "latitude": -7.50528, "longitude": -35.31833, "popIndex": 105},{"name": "Tiangua", "country": "BR", "latitude": -3.73222, "longitude": -40.99167, "popIndex": 93},{"name": "Teresina", "country": "BR", "latitude": -5.08917, "longitude": -42.80194, "popIndex": 88},{"name": "Sao Joao dos Inhamuns", "country": "BR", "latitude": -6.0, "longitude": -40.28333, "popIndex": 93},{"name": "Tabira", "country": "BR", "latitude": -7.59083, "longitude": -37.53944, "popIndex": 105},{"name": "Sousa", "country": "BR", "latitude": -6.75917, "longitude": -38.22806, "popIndex": 101},{"name": "Soure", "country": "BR", "latitude": -0.71667, "longitude": -48.52333, "popIndex": 60},{"name": "Solanea", "country": "BR", "latitude": -6.755, "longitude": -35.54, "popIndex": 100},{"name": "Sobral", "country": "BR", "latitude": -3.68611, "longitude": -40.34972, "popIndex": 93},{"name": "Sirinhaem", "country": "BR", "latitude": -8.59083, "longitude": -35.11611, "popIndex": 105},{"name": "Sertania", "country": "BR", "latitude": -8.07361, "longitude": -37.26444, "popIndex": 105},{"name": "Serra Talhada", "country": "BR", "latitude": -7.99194, "longitude": -38.29833, "popIndex": 105},{"name": "Sao Raimundo Nonato", "country": "BR", "latitude": -9.01528, "longitude": -42.69944, "popIndex": 88},{"name": "Sao Miguel dos Campos", "country": "BR", "latitude": -9.78111, "longitude": -36.09361, "popIndex": 108},{"name": "Sao Miguel do Guama", "country": "BR", "latitude": -1.62667, "longitude": -47.48333, "popIndex": 60},{"name": "Sao Luis do Quitunde", "country": "BR", "latitude": -9.31833, "longitude": -35.56111, "popIndex": 108},{"name": "Sao Luis", "country": "BR", "latitude": -2.52972, "longitude": -44.30278, "popIndex": 84},{"name": "Sao Lourenco da Mata", "country": "BR", "latitude": -8.00222, "longitude": -35.01833, "popIndex": 105},{"name": "Sao Jose do Egito", "country": "BR", "latitude": -7.47889, "longitude": -37.27444, "popIndex": 105},{"name": "Sao Jose de Ribamar", "country": "BR", "latitude": -2.55572, "longitude": -44.05992, "popIndex": 84},{"name": "Sao Jose de Mipibu", "country": "BR", "latitude": -6.07472, "longitude": -35.23778, "popIndex": 96},{"name": "Sao Goncalo do Amarante", "country": "BR", "latitude": -3.60722, "longitude": -38.96833, "popIndex": 92},{"name": "Sao Felix do Xingu", "country": "BR", "latitude": -6.64472, "longitude": -51.995, "popIndex": 60},{"name": "Sao Domingos do Maranhao", "country": "BR", "latitude": -5.57583, "longitude": -44.38528, "popIndex": 84},{"name": "Sao Bento", "country": "BR", "latitude": -6.28333, "longitude": -37.75, "popIndex": 100},{"name": "Sao Bento", "country": "BR", "latitude": -2.69583, "longitude": -44.82139, "popIndex": 84},{"name": "Santarem", "country": "BR", "latitude": -2.44306, "longitude": -54.70833, "popIndex": 60},{"name": "Santa Quiteria do Maranhao", "country": "BR", "latitude": -3.51556, "longitude": -42.54667, "popIndex": 84},{"name": "Santana do Ipanema", "country": "BR", "latitude": -9.37833, "longitude": -37.24528, "popIndex": 108},{"name": "Santa Luzia", "country": "BR", "latitude": -7.64265, "longitude": -47.21738, "popIndex": 84},{"name": "Santa Ines", "country": "BR", "latitude": -3.66667, "longitude": -45.38, "popIndex": 84},{"name": "Santa Cruz do Capibaribe", "country": "BR", "latitude": -7.9575, "longitude": -36.20472, "popIndex": 105},{"name": "Santa Cruz", "country": "BR", "latitude": -6.22944, "longitude": -36.02278, "popIndex": 96},{"name": "Salinopolis", "country": "BR", "latitude": -0.62099, "longitude": -47.35422, "popIndex": 60},{"name": "Salgueiro", "country": "BR", "latitude": -8.07417, "longitude": -39.11917, "popIndex": 104},{"name": "Russas", "country": "BR", "latitude": -4.94028, "longitude": -37.97583, "popIndex": 92},{"name": "Recife", "country": "BR", "latitude": -8.05389, "longitude": -34.88111, "popIndex": 104},{"name": "Quixeramobim", "country": "BR", "latitude": -5.19917, "longitude": -39.29278, "popIndex": 92},{"name": "Presidente Dutra", "country": "BR", "latitude": -5.29, "longitude": -44.49, "popIndex": 84},{"name": "Santana", "country": "BR", "latitude": -0.03816, "longitude": -51.17476, "popIndex": 64},{"name": "Pombos", "country": "BR", "latitude": -8.14139, "longitude": -35.39583, "popIndex": 104},{"name": "Pombal", "country": "BR", "latitude": -6.77028, "longitude": -37.80167, "popIndex": 100},{"name": "Piripiri", "country": "BR", "latitude": -4.27333, "longitude": -41.77694, "popIndex": 88},{"name": "Pinheiro", "country": "BR", "latitude": -2.52139, "longitude": -45.0825, "popIndex": 84},{"name": "Pindare Mirim", "country": "BR", "latitude": -3.60833, "longitude": -45.34333, "popIndex": 84},{"name": "Pilar", "country": "BR", "latitude": -9.59722, "longitude": -35.95667, "popIndex": 108},{"name": "Picos", "country": "BR", "latitude": -7.07694, "longitude": -41.46694, "popIndex": 88},{"name": "Petrolina", "country": "BR", "latitude": -9.39861, "longitude": -40.50083, "popIndex": 104},{"name": "Jatoba", "country": "BR", "latitude": -9.18306, "longitude": -38.26889, "popIndex": 104},{"name": "Pedro II", "country": "BR", "latitude": -4.42472, "longitude": -41.45861, "popIndex": 88},{"name": "Pedra Branca", "country": "BR", "latitude": -5.45417, "longitude": -39.71722, "popIndex": 92},{"name": "Paulo Afonso", "country": "BR", "latitude": -9.40611, "longitude": -38.21472, "popIndex": 117},{"name": "Paulista", "country": "BR", "latitude": -7.94083, "longitude": -34.87306, "popIndex": 104},{"name": "Patos", "country": "BR", "latitude": -7.02444, "longitude": -37.28, "popIndex": 100},{"name": "Parnamirim", "country": "BR", "latitude": -5.91556, "longitude": -35.26278, "popIndex": 96},{"name": "Parnaiba", "country": "BR", "latitude": -2.90472, "longitude": -41.77667, "popIndex": 88},{"name": "Parintins", "country": "BR", "latitude": -2.62833, "longitude": -56.73583, "popIndex": 52},{"name": "Paraipaba", "country": "BR", "latitude": -3.43944, "longitude": -39.14833, "popIndex": 92},{"name": "Palmares", "country": "BR", "latitude": -8.68333, "longitude": -35.59167, "popIndex": 104},{"name": "Pacajus", "country": "BR", "latitude": -4.1725, "longitude": -38.46056, "popIndex": 92},{"name": "Ouricuri", "country": "BR", "latitude": -7.8825, "longitude": -40.08167, "popIndex": 104},{"name": "Oros", "country": "BR", "latitude": -6.24444, "longitude": -38.91361, "popIndex": 92},{"name": "Oriximina", "country": "BR", "latitude": -1.76556, "longitude": -55.86611, "popIndex": 60},{"name": "Olinda", "country": "BR", "latitude": -8.00889, "longitude": -34.85528, "popIndex": 104},{"name": "Oiapoque", "country": "BR", "latitude": 3.84306, "longitude": -51.835, "popIndex": 64},{"name": "Oeiras", "country": "BR", "latitude": -7.02528, "longitude": -42.13111, "popIndex": 88},{"name": "Obidos", "country": "BR", "latitude": -1.9175, "longitude": -55.51806, "popIndex": 60},{"name": "Nazare da Mata", "country": "BR", "latitude": -7.74167, "longitude": -35.22778, "popIndex": 104},{"name": "Natal", "country": "BR", "latitude": -5.795, "longitude": -35.20944, "popIndex": 96},{"name": "Morada Nova", "country": "BR", "latitude": -5.10667, "longitude": -38.3725, "popIndex": 92},{"name": "Monteiro", "country": "BR", "latitude": -7.88944, "longitude": -37.12, "popIndex": 100},{"name": "Monte Alegre", "country": "BR", "latitude": -2.00082, "longitude": -54.08102, "popIndex": 60},{"name": "Mombaca", "country": "BR", "latitude": -5.74306, "longitude": -39.6275, "popIndex": 92},{"name": "Mossoro", "country": "BR", "latitude": -5.1875, "longitude": -37.34417, "popIndex": 96},{"name": "Miracema do Tocantins", "country": "BR", "latitude": -9.56722, "longitude": -48.39167, "popIndex": 69},{"name": "Maues", "country": "BR", "latitude": -3.38361, "longitude": -57.71861, "popIndex": 52},{"name": "Matriz de Camaragibe", "country": "BR", "latitude": -9.15167, "longitude": -35.53333, "popIndex": 108},{"name": "Mari", "country": "BR", "latitude": -7.06, "longitude": -35.31944, "popIndex": 100},{"name": "Marechal Deodoro", "country": "BR", "latitude": -9.71028, "longitude": -35.895, "popIndex": 108},{"name": "Maragogi", "country": "BR", "latitude": -9.01222, "longitude": -35.2225, "popIndex": 108},{"name": "Maraba", "country": "BR", "latitude": -5.38146, "longitude": -49.13232, "popIndex": 60},{"name": "Maceio", "country": "BR", "latitude": -9.66583, "longitude": -35.73528, "popIndex": 108},{"name": "Macau", "country": "BR", "latitude": -5.115, "longitude": -36.63444, "popIndex": 96},{"name": "Macapa", "country": "BR", "latitude": 0.03889, "longitude": -51.06639, "popIndex": 64},{"name": "Macaiba", "country": "BR", "latitude": -5.85833, "longitude": -35.35389, "popIndex": 96},{"name": "Limoeiro do Norte", "country": "BR", "latitude": -5.14556, "longitude": -38.09806, "popIndex": 92},{"name": "Lavras da Mangabeira", "country": "BR", "latitude": -6.75333, "longitude": -38.96444, "popIndex": 92},{"name": "Lajedo", "country": "BR", "latitude": -8.66361, "longitude": -36.32, "popIndex": 104},{"name": "Lago da Pedra", "country": "BR", "latitude": -4.28674, "longitude": -45.23824, "popIndex": 85},{"name": "Juazeiro do Norte", "country": "BR", "latitude": -7.21306, "longitude": -39.31528, "popIndex": 92},{"name": "Jose de Freitas", "country": "BR", "latitude": -4.75639, "longitude": -42.57556, "popIndex": 88},{"name": "Joao Pessoa", "country": "BR", "latitude": -7.115, "longitude": -34.86306, "popIndex": 100},{"name": "Joao Camara", "country": "BR", "latitude": -5.5375, "longitude": -35.81972, "popIndex": 96},{"name": "Jaguaribe", "country": "BR", "latitude": -5.89056, "longitude": -38.62194, "popIndex": 92},{"name": "Itacoatiara", "country": "BR", "latitude": -3.14306, "longitude": -58.44417, "popIndex": 52},{"name": "Itaporanga", "country": "BR", "latitude": -7.30444, "longitude": -38.15028, "popIndex": 100},{"name": "Itapissuma", "country": "BR", "latitude": -7.77639, "longitude": -34.89222, "popIndex": 104},{"name": "Itapipoca", "country": "BR", "latitude": -3.49444, "longitude": -39.57861, "popIndex": 92},{"name": "Itapecuru Mirim", "country": "BR", "latitude": -3.3925, "longitude": -44.35861, "popIndex": 84},{"name": "Itapage", "country": "BR", "latitude": -3.68667, "longitude": -39.58611, "popIndex": 92},{"name": "Itaituba", "country": "BR", "latitude": -4.27611, "longitude": -55.98361, "popIndex": 60},{"name": "Itabaiana", "country": "BR", "latitude": -7.32861, "longitude": -35.3325, "popIndex": 100},{"name": "Ipubi", "country": "BR", "latitude": -7.65194, "longitude": -40.14889, "popIndex": 104},{"name": "Ipojuca", "country": "BR", "latitude": -8.39889, "longitude": -35.06389, "popIndex": 104},{"name": "Imperatriz", "country": "BR", "latitude": -5.52639, "longitude": -47.49167, "popIndex": 84},{"name": "Iguatu", "country": "BR", "latitude": -6.35944, "longitude": -39.29861, "popIndex": 92},{"name": "Igarape Miri", "country": "BR", "latitude": -1.975, "longitude": -48.95972, "popIndex": 60},{"name": "Igarape Acu", "country": "BR", "latitude": -1.12889, "longitude": -47.62, "popIndex": 60},{"name": "Igarassu", "country": "BR", "latitude": -7.83417, "longitude": -34.90639, "popIndex": 104},{"name": "Horizonte", "country": "BR", "latitude": -4.09802, "longitude": -38.486, "popIndex": 92},{"name": "Guaraciaba do Norte", "country": "BR", "latitude": -4.16694, "longitude": -40.7475, "popIndex": 92},{"name": "Guarabira", "country": "BR", "latitude": -6.85472, "longitude": -35.49, "popIndex": 100},{"name": "Guaiuba", "country": "BR", "latitude": -4.03972, "longitude": -38.63722, "popIndex": 92},{"name": "Gravata", "country": "BR", "latitude": -8.20111, "longitude": -35.56472, "popIndex": 104},{"name": "Grajau", "country": "BR", "latitude": -5.81944, "longitude": -46.13861, "popIndex": 84},{"name": "Goiana", "country": "BR", "latitude": -7.56056, "longitude": -35.0025, "popIndex": 104},{"name": "Gloria do Goita", "country": "BR", "latitude": -8.00167, "longitude": -35.29278, "popIndex": 104},{"name": "Garanhuns", "country": "BR", "latitude": -8.88202, "longitude": -36.50216, "popIndex": 104},{"name": "Gameleira", "country": "BR", "latitude": -8.58444, "longitude": -35.38667, "popIndex": 104},{"name": "Fortaleza", "country": "BR", "latitude": -3.71722, "longitude": -38.54306, "popIndex": 92},{"name": "Floriano", "country": "BR", "latitude": -6.76694, "longitude": -43.0225, "popIndex": 88},{"name": "Floresta", "country": "BR", "latitude": -8.60111, "longitude": -38.56861, "popIndex": 104},{"name": "Eusebio", "country": "BR", "latitude": -3.89, "longitude": -38.45056, "popIndex": 92},{"name": "Extremoz", "country": "BR", "latitude": -5.70556, "longitude": -35.30722, "popIndex": 96},{"name": "Estreito", "country": "BR", "latitude": -5.78333, "longitude": -43.25, "popIndex": 84},{"name": "Esperantina", "country": "BR", "latitude": -3.90167, "longitude": -42.23361, "popIndex": 88},{"name": "Dom Pedro", "country": "BR", "latitude": -5.03749, "longitude": -44.43857, "popIndex": 84},{"name": "Demerval Lobao", "country": "BR", "latitude": -5.35833, "longitude": -42.67639, "popIndex": 88},{"name": "Delmiro Gouveia", "country": "BR", "latitude": -9.38861, "longitude": -37.99917, "popIndex": 108},{"name": "Cururupu", "country": "BR", "latitude": -1.82833, "longitude": -44.86833, "popIndex": 84},{"name": "Currais Novos", "country": "BR", "latitude": -6.26083, "longitude": -36.51778, "popIndex": 96},{"name": "Cupira", "country": "BR", "latitude": -8.61667, "longitude": -35.95, "popIndex": 104},{"name": "Crato", "country": "BR", "latitude": -7.23417, "longitude": -39.40944, "popIndex": 92},{"name": "Crateus", "country": "BR", "latitude": -5.17833, "longitude": -40.6775, "popIndex": 92},{"name": "Coroata", "country": "BR", "latitude": -4.13, "longitude": -44.12417, "popIndex": 84},{"name": "Condado", "country": "BR", "latitude": -7.58583, "longitude": -35.10583, "popIndex": 104},{"name": "Conceicao do Araguaia", "country": "BR", "latitude": -8.26441, "longitude": -49.26982, "popIndex": 60},{"name": "Colinas", "country": "BR", "latitude": -6.02583, "longitude": -44.24917, "popIndex": 84},{"name": "Coelho Neto", "country": "BR", "latitude": -4.25667, "longitude": -43.01278, "popIndex": 84},{"name": "Codo", "country": "BR", "latitude": -4.45528, "longitude": -43.88556, "popIndex": 84},{"name": "Caxias", "country": "BR", "latitude": -4.85889, "longitude": -43.35611, "popIndex": 84},{"name": "Caucaia", "country": "BR", "latitude": -3.73611, "longitude": -38.65306, "popIndex": 92},{"name": "Catole do Rocha", "country": "BR", "latitude": -6.34389, "longitude": -37.74667, "popIndex": 100},{"name": "Castanhal", "country": "BR", "latitude": -1.29389, "longitude": -47.92639, "popIndex": 60},{"name": "Caruaru", "country": "BR", "latitude": -8.28333, "longitude": -35.97611, "popIndex": 104},{"name": "Carpina", "country": "BR", "latitude": -7.85083, "longitude": -35.25472, "popIndex": 104},{"name": "Carolina", "country": "BR", "latitude": -7.33561, "longitude": -47.46218, "popIndex": 84},{"name": "Caninde", "country": "BR", "latitude": -4.35889, "longitude": -39.31167, "popIndex": 92},{"name": "Canguaretama", "country": "BR", "latitude": -6.38, "longitude": -35.12889, "popIndex": 96},{"name": "Campos Sales", "country": "BR", "latitude": -7.07444, "longitude": -40.37611, "popIndex": 92},{"name": "Campo Maior", "country": "BR", "latitude": -4.82778, "longitude": -42.16861, "popIndex": 88},{"name": "Campo Alegre", "country": "BR", "latitude": -9.78194, "longitude": -36.35083, "popIndex": 108},{"name": "Campina Grande", "country": "BR", "latitude": -7.23056, "longitude": -35.88111, "popIndex": 100},{"name": "Camocim", "country": "BR", "latitude": -2.90222, "longitude": -40.84111, "popIndex": 92},{"name": "Cameta", "country": "BR", "latitude": -2.24444, "longitude": -49.49583, "popIndex": 60},{"name": "Cajueiro", "country": "BR", "latitude": -9.71667, "longitude": -36.45, "popIndex": 108},{"name": "Cajazeiras", "country": "BR", "latitude": -6.89028, "longitude": -38.55528, "popIndex": 100},{"name": "Caico", "country": "BR", "latitude": -6.45833, "longitude": -37.09778, "popIndex": 96},{"name": "Cabo", "country": "BR", "latitude": -8.28333, "longitude": -35.03333, "popIndex": 104},{"name": "Cabedelo", "country": "BR", "latitude": -6.98111, "longitude": -34.83389, "popIndex": 100},{"name": "Buriti Bravo", "country": "BR", "latitude": -5.83722, "longitude": -43.83361, "popIndex": 84},{"name": "Buique", "country": "BR", "latitude": -8.62306, "longitude": -37.15583, "popIndex": 104},{"name": "Breves", "country": "BR", "latitude": -1.68222, "longitude": -50.48028, "popIndex": 60},{"name": "Brejo Santo", "country": "BR", "latitude": -7.49333, "longitude": -38.98722, "popIndex": 92},{"name": "Brejo da Madre de Deus", "country": "BR", "latitude": -8.14583, "longitude": -36.37111, "popIndex": 104},{"name": "Bezerros", "country": "BR", "latitude": -8.23333, "longitude": -35.79694, "popIndex": 104},{"name": "Belo Jardim", "country": "BR", "latitude": -8.33556, "longitude": -36.42417, "popIndex": 104},{"name": "Belem", "country": "BR", "latitude": -6.69167, "longitude": -35.53333, "popIndex": 100},{"name": "Belem", "country": "BR", "latitude": -1.45583, "longitude": -48.50444, "popIndex": 60},{"name": "Beberibe", "country": "BR", "latitude": -4.17972, "longitude": -38.13056, "popIndex": 92},{"name": "Barreirinhas", "country": "BR", "latitude": -2.75556, "longitude": -42.82591, "popIndex": 84},{"name": "Barras", "country": "BR", "latitude": -4.24444, "longitude": -42.29444, "popIndex": 88},{"name": "Barra do Corda", "country": "BR", "latitude": -5.50556, "longitude": -45.24333, "popIndex": 84},{"name": "Balsas", "country": "BR", "latitude": -7.5325, "longitude": -46.03556, "popIndex": 84},{"name": "Bacabal", "country": "BR", "latitude": -4.29167, "longitude": -44.79167, "popIndex": 84},{"name": "Arcoverde", "country": "BR", "latitude": -8.41889, "longitude": -37.05389, "popIndex": 104},{"name": "Araripina", "country": "BR", "latitude": -7.57611, "longitude": -40.49833, "popIndex": 104},{"name": "Arari", "country": "BR", "latitude": -3.45361, "longitude": -44.78, "popIndex": 84},{"name": "Arapiraca", "country": "BR", "latitude": -9.7525, "longitude": -36.66111, "popIndex": 108},{"name": "Araguaina", "country": "BR", "latitude": -7.19111, "longitude": -48.20722, "popIndex": 68},{"name": "Aracati", "country": "BR", "latitude": -4.56167, "longitude": -37.76972, "popIndex": 92},{"name": "Apodi", "country": "BR", "latitude": -5.66417, "longitude": -37.79889, "popIndex": 96},{"name": "Ananindeua", "country": "BR", "latitude": -1.36556, "longitude": -48.37222, "popIndex": 60},{"name": "Amaraji", "country": "BR", "latitude": -8.38306, "longitude": -35.4525, "popIndex": 104},{"name": "Altamira", "country": "BR", "latitude": -3.20333, "longitude": -52.20639, "popIndex": 60},{"name": "Almeirim", "country": "BR", "latitude": -1.52333, "longitude": -52.58167, "popIndex": 60},{"name": "Alenquer", "country": "BR", "latitude": -1.94167, "longitude": -54.73833, "popIndex": 60},{"name": "Aguas Belas", "country": "BR", "latitude": -9.11139, "longitude": -37.12306, "popIndex": 104},{"name": "Afogados da Ingazeira", "country": "BR", "latitude": -7.75083, "longitude": -37.63917, "popIndex": 104},{"name": "Acu", "country": "BR", "latitude": -5.57667, "longitude": -36.90861, "popIndex": 96},{"name": "Acopiara", "country": "BR", "latitude": -6.09528, "longitude": -39.4525, "popIndex": 92},{"name": "Acarau", "country": "BR", "latitude": -2.88556, "longitude": -40.12, "popIndex": 92},{"name": "Abreu e Lima", "country": "BR", "latitude": -7.91167, "longitude": -34.90278, "popIndex": 104},{"name": "Abaetetuba", "country": "BR", "latitude": -1.71806, "longitude": -48.8825, "popIndex": 60},{"name": "Xique Xique", "country": "BR", "latitude": -10.82294, "longitude": -42.72815, "popIndex": 117},{"name": "Xanxere", "country": "BR", "latitude": -26.87694, "longitude": -52.40417, "popIndex": 169},{"name": "Votuporanga", "country": "BR", "latitude": -20.42278, "longitude": -49.97278, "popIndex": 142},{"name": "Votorantim", "country": "BR", "latitude": -23.54667, "longitude": -47.43778, "popIndex": 142},{"name": "Volta Redonda", "country": "BR", "latitude": -22.52306, "longitude": -44.10417, "popIndex": 132},{"name": "Vitoria da Conquista", "country": "BR", "latitude": -14.86611, "longitude": -40.83944, "popIndex": 117},{"name": "Vitoria", "country": "BR", "latitude": -20.31944, "longitude": -40.33778, "popIndex": 128},{"name": "Visconde do Rio Branco", "country": "BR", "latitude": -21.01028, "longitude": -42.84056, "popIndex": 127},{"name": "Viradouro", "country": "BR", "latitude": -20.87306, "longitude": -48.29694, "popIndex": 142},{"name": "Vinhedo", "country": "BR", "latitude": -23.02972, "longitude": -46.97528, "popIndex": 142},{"name": "Vila Velha", "country": "BR", "latitude": -20.32972, "longitude": -40.2925, "popIndex": 128},{"name": "Videira", "country": "BR", "latitude": -27.00833, "longitude": -51.15167, "popIndex": 169},{"name": "Vicosa", "country": "BR", "latitude": -20.75389, "longitude": -42.88194, "popIndex": 127},{"name": "Viana", "country": "BR", "latitude": -20.39028, "longitude": -40.49611, "popIndex": 128},{"name": "Viamao", "country": "BR", "latitude": -30.08111, "longitude": -51.02333, "popIndex": 173},{"name": "Veranopolis", "country": "BR", "latitude": -28.93611, "longitude": -51.54944, "popIndex": 173},{"name": "Vera Cruz", "country": "BR", "latitude": -12.63333, "longitude": -41.03333, "popIndex": 116},{"name": "Wenceslau Braz", "country": "BR", "latitude": -23.87389, "longitude": -49.80278, "popIndex": 165},{"name": "Venancio Aires", "country": "BR", "latitude": -29.60639, "longitude": -52.19194, "popIndex": 173},{"name": "Vassouras", "country": "BR", "latitude": -22.40389, "longitude": -43.6625, "popIndex": 132},{"name": "Varzea Paulista", "country": "BR", "latitude": -23.21139, "longitude": -46.82833, "popIndex": 142},{"name": "Varzea Grande", "country": "BR", "latitude": -15.64667, "longitude": -56.1325, "popIndex": 204},{"name": "Varginha", "country": "BR", "latitude": -21.55139, "longitude": -45.43028, "popIndex": 127},{"name": "Vargem Grande do Sul", "country": "BR", "latitude": -21.83222, "longitude": -46.89361, "popIndex": 142},{"name": "Valinhos", "country": "BR", "latitude": -22.97056, "longitude": -46.99583, "popIndex": 142},{"name": "Valenca", "country": "BR", "latitude": -22.24556, "longitude": -43.70028, "popIndex": 132},{"name": "Valenca", "country": "BR", "latitude": -13.37028, "longitude": -39.07306, "popIndex": 117},{"name": "Vacaria", "country": "BR", "latitude": -28.51222, "longitude": -50.93389, "popIndex": 173},{"name": "Uruguaiana", "country": "BR", "latitude": -29.75472, "longitude": -57.08833, "popIndex": 173},{"name": "Urucuca", "country": "BR", "latitude": -14.59306, "longitude": -39.28444, "popIndex": 117},{"name": "Uruacu", "country": "BR", "latitude": -14.52472, "longitude": -49.14083, "popIndex": 209},{"name": "Uniao da Vitoria", "country": "BR", "latitude": -26.23, "longitude": -51.08639, "popIndex": 165},{"name": "Unai", "country": "BR", "latitude": -16.3575, "longitude": -46.90611, "popIndex": 127},{"name": "Una", "country": "BR", "latitude": -15.29333, "longitude": -39.07528, "popIndex": 117},{"name": "Umuarama", "country": "BR", "latitude": -23.76639, "longitude": -53.325, "popIndex": 165},{"name": "Uberlandia", "country": "BR", "latitude": -18.91861, "longitude": -48.27722, "popIndex": 127},{"name": "Uberaba", "country": "BR", "latitude": -19.74833, "longitude": -47.93194, "popIndex": 127},{"name": "Ubatuba", "country": "BR", "latitude": -23.43389, "longitude": -45.07111, "popIndex": 142},{"name": "Ubata", "country": "BR", "latitude": -14.20906, "longitude": -39.52641, "popIndex": 117},{"name": "Ubaitaba", "country": "BR", "latitude": -14.3125, "longitude": -39.32333, "popIndex": 117},{"name": "Uba", "country": "BR", "latitude": -21.12, "longitude": -42.94278, "popIndex": 127},{"name": "Tupancireta", "country": "BR", "latitude": -29.08056, "longitude": -53.83583, "popIndex": 173},{"name": "Tupaciguara", "country": "BR", "latitude": -18.59222, "longitude": -48.705, "popIndex": 127},{"name": "Tupa", "country": "BR", "latitude": -21.93472, "longitude": -50.51361, "popIndex": 142},{"name": "Tucano", "country": "BR", "latitude": -10.95817, "longitude": -38.79084, "popIndex": 117},{"name": "Tubarao", "country": "BR", "latitude": -28.46667, "longitude": -49.00694, "popIndex": 169},{"name": "Trindade", "country": "BR", "latitude": -16.64944, "longitude": -49.48889, "popIndex": 209},{"name": "Tres Rios", "country": "BR", "latitude": -22.11667, "longitude": -43.20917, "popIndex": 132},{"name": "Tres Pontas", "country": "BR", "latitude": -21.36667, "longitude": -45.5125, "popIndex": 127},{"name": "Tres Lagoas", "country": "BR", "latitude": -20.78765, "longitude": -51.70338, "popIndex": 200},{"name": "Tres de Maio", "country": "BR", "latitude": -27.77333, "longitude": -54.24, "popIndex": 173},{"name": "Tres Coroas", "country": "BR", "latitude": -29.51694, "longitude": -50.77778, "popIndex": 173},{"name": "Tres Coracoes", "country": "BR", "latitude": -21.69694, "longitude": -45.25333, "popIndex": 127},{"name": "Tramandai", "country": "BR", "latitude": -29.98472, "longitude": -50.13361, "popIndex": 173},{"name": "Torres", "country": "BR", "latitude": -29.33528, "longitude": -49.72694, "popIndex": 173},{"name": "Toledo", "country": "BR", "latitude": -24.71361, "longitude": -53.74306, "popIndex": 165},{"name": "Tobias Barreto", "country": "BR", "latitude": -11.18389, "longitude": -37.99833, "popIndex": 112},{"name": "Timoteo", "country": "BR", "latitude": -19.58106, "longitude": -42.64953, "popIndex": 127},{"name": "Tijucas", "country": "BR", "latitude": -27.24139, "longitude": -48.63361, "popIndex": 169},{"name": "Tiete", "country": "BR", "latitude": -23.10194, "longitude": -47.71472, "popIndex": 142},{"name": "Teresopolis", "country": "BR", "latitude": -22.4167, "longitude": -42.97822, "popIndex": 132},{"name": "Teofilo Otoni", "country": "BR", "latitude": -17.8575, "longitude": -41.50528, "popIndex": 127},{"name": "Teodoro Sampaio", "country": "BR", "latitude": -22.5325, "longitude": -52.1675, "popIndex": 142},{"name": "Telemaco Borba", "country": "BR", "latitude": -24.32389, "longitude": -50.61556, "popIndex": 165},{"name": "Taubate", "country": "BR", "latitude": -23.02639, "longitude": -45.55528, "popIndex": 142},{"name": "Tatui", "country": "BR", "latitude": -23.35556, "longitude": -47.85694, "popIndex": 142},{"name": "Taquarituba", "country": "BR", "latitude": -23.53306, "longitude": -49.24444, "popIndex": 142},{"name": "Taquaritinga", "country": "BR", "latitude": -21.40611, "longitude": -48.50472, "popIndex": 142},{"name": "Taquari", "country": "BR", "latitude": -29.79972, "longitude": -51.86444, "popIndex": 173},{"name": "Tapiramuta", "country": "BR", "latitude": -11.84722, "longitude": -40.79139, "popIndex": 117},{"name": "Tapes", "country": "BR", "latitude": -30.67333, "longitude": -51.39583, "popIndex": 173},{"name": "Tanabi", "country": "BR", "latitude": -20.62639, "longitude": -49.64917, "popIndex": 142},{"name": "Tambau", "country": "BR", "latitude": -21.705, "longitude": -47.27444, "popIndex": 142},{"name": "Taiobeiras", "country": "BR", "latitude": -15.80778, "longitude": -42.23306, "popIndex": 127},{"name": "Taboao da Serra", "country": "BR", "latitude": -23.62611, "longitude": -46.79167, "popIndex": 142},{"name": "Suzano", "country": "BR", "latitude": -23.5425, "longitude": -46.31083, "popIndex": 142},{"name": "Sumare", "country": "BR", "latitude": -22.82194, "longitude": -47.26694, "popIndex": 142},{"name": "Sorocaba", "country": "BR", "latitude": -23.50167, "longitude": -47.45806, "popIndex": 142},{"name": "Socorro", "country": "BR", "latitude": -22.59139, "longitude": -46.52889, "popIndex": 142},{"name": "Sobradinho", "country": "BR", "latitude": -12.83333, "longitude": -39.1, "popIndex": 117},{"name": "Simao Dias", "country": "BR", "latitude": -10.73833, "longitude": -37.81111, "popIndex": 112},{"name": "Silva Jardim", "country": "BR", "latitude": -22.65083, "longitude": -42.39167, "popIndex": 132},{"name": "Sete Lagoas", "country": "BR", "latitude": -19.46583, "longitude": -44.24667, "popIndex": 127},{"name": "Serra", "country": "BR", "latitude": -20.12861, "longitude": -40.30778, "popIndex": 128},{"name": "Seropedica", "country": "BR", "latitude": -22.74389, "longitude": -43.7075, "popIndex": 132},{"name": "Senhor do Bonfim", "country": "BR", "latitude": -10.46139, "longitude": -40.18944, "popIndex": 117},{"name": "Seabra", "country": "BR", "latitude": -12.41713, "longitude": -41.77049, "popIndex": 117},{"name": "Schroeder", "country": "BR", "latitude": -26.4125, "longitude": -49.07306, "popIndex": 169},{"name": "Sarandi", "country": "BR", "latitude": -27.94389, "longitude": -52.92306, "popIndex": 173},{"name": "Sapucaia", "country": "BR", "latitude": -29.83333, "longitude": -51.15, "popIndex": 173},{"name": "Sapiranga", "country": "BR", "latitude": -29.63806, "longitude": -51.00694, "popIndex": 173},{"name": "Sao Vicente", "country": "BR", "latitude": -23.96306, "longitude": -46.39194, "popIndex": 142},{"name": "Sao Sebastiao do Passe", "country": "BR", "latitude": -12.5125, "longitude": -38.49528, "popIndex": 117},{"name": "Sao Sebastiao do Paraiso", "country": "BR", "latitude": -20.91694, "longitude": -46.99139, "popIndex": 127},{"name": "Sao Sebastiao do Cai", "country": "BR", "latitude": -29.58667, "longitude": -51.37556, "popIndex": 173},{"name": "Sao Sebastiao", "country": "BR", "latitude": -23.76, "longitude": -45.40972, "popIndex": 142},{"name": "Sao Pedro da Aldeia", "country": "BR", "latitude": -22.83917, "longitude": -42.10278, "popIndex": 132},{"name": "Sao Pedro", "country": "BR", "latitude": -22.54861, "longitude": -47.91389, "popIndex": 142},{"name": "Sao Paulo", "country": "BR", "latitude": -23.5475, "longitude": -46.63611, "popIndex": 496},{"name": "Sao Miguel do Iguacu", "country": "BR", "latitude": -25.34806, "longitude": -54.23778, "popIndex": 165},{"name": "Sao Miguel do Araguaia", "country": "BR", "latitude": -13.275, "longitude": -50.16278, "popIndex": 209},{"name": "Sao Mateus do Sul", "country": "BR", "latitude": -25.87417, "longitude": -50.38278, "popIndex": 165},{"name": "Sao Mateus", "country": "BR", "latitude": -18.72011, "longitude": -39.85891, "popIndex": 128},{"name": "Sao Marcos", "country": "BR", "latitude": -28.97111, "longitude": -51.06806, "popIndex": 173},{"name": "Sao Manuel", "country": "BR", "latitude": -22.73111, "longitude": -48.57056, "popIndex": 142},{"name": "Sao Luiz Gonzaga", "country": "BR", "latitude": -28.40833, "longitude": -54.96083, "popIndex": 173},{"name": "Sao Lourenco do Sul", "country": "BR", "latitude": -31.36528, "longitude": -51.97833, "popIndex": 173},{"name": "Sao Lourenco", "country": "BR", "latitude": -22.11639, "longitude": -45.05444, "popIndex": 127},{"name": "Sao Leopoldo", "country": "BR", "latitude": -29.76028, "longitude": -51.14722, "popIndex": 173},{"name": "Sao Jose dos Pinhais", "country": "BR", "latitude": -25.5302, "longitude": -49.20836, "popIndex": 165},{"name": "Sao Jose dos Campos", "country": "BR", "latitude": -23.17944, "longitude": -45.88694, "popIndex": 142},{"name": "Sao Jose do Rio Preto", "country": "BR", "latitude": -20.81972, "longitude": -49.37944, "popIndex": 142},{"name": "Sao Jose", "country": "BR", "latitude": -28.21171, "longitude": -49.1632, "popIndex": 168},{"name": "Sao Joaquim da Barra", "country": "BR", "latitude": -20.58139, "longitude": -47.85472, "popIndex": 142},{"name": "Sao Joaquim", "country": "BR", "latitude": -28.29389, "longitude": -49.93167, "popIndex": 169},{"name": "Sao Joao Nepomuceno", "country": "BR", "latitude": -21.54, "longitude": -43.01056, "popIndex": 127},{"name": "Sao Joao de Meriti", "country": "BR", "latitude": -22.80389, "longitude": -43.37222, "popIndex": 132},{"name": "Sao Joao del Rei", "country": "BR", "latitude": -21.13556, "longitude": -44.26167, "popIndex": 127},{"name": "Sao Joao da Barra", "country": "BR", "latitude": -21.64028, "longitude": -41.05111, "popIndex": 132},{"name": "Sao Jeronimo", "country": "BR", "latitude": -29.95917, "longitude": -51.72222, "popIndex": 173},{"name": "Sao Gotardo", "country": "BR", "latitude": -19.31111, "longitude": -46.04889, "popIndex": 126},{"name": "Sao Goncalo do Sapucai", "country": "BR", "latitude": -21.89222, "longitude": -45.59528, "popIndex": 126},{"name": "Sao Francisco do Sul", "country": "BR", "latitude": -26.24333, "longitude": -48.63806, "popIndex": 169},{"name": "Sao Francisco do Conde", "country": "BR", "latitude": -12.6275, "longitude": -38.68, "popIndex": 117},{"name": "Sao Francisco", "country": "BR", "latitude": -15.94861, "longitude": -44.86444, "popIndex": 126},{"name": "Sao Cristovao", "country": "BR", "latitude": -11.01472, "longitude": -37.20639, "popIndex": 112},{"name": "Sao Carlos", "country": "BR", "latitude": -22.0175, "longitude": -47.89083, "popIndex": 142},{"name": "Sao Caetano do Sul", "country": "BR", "latitude": -23.62306, "longitude": -46.55111, "popIndex": 142},{"name": "Sao Borja", "country": "BR", "latitude": -28.66056, "longitude": -56.00444, "popIndex": 173},{"name": "Sao Bernardo do Campo", "country": "BR", "latitude": -23.69389, "longitude": -46.565, "popIndex": 142},{"name": "Sao Bento do Sul", "country": "BR", "latitude": -26.25028, "longitude": -49.37861, "popIndex": 169},{"name": "Santos Dumont", "country": "BR", "latitude": -21.45667, "longitude": -43.5525, "popIndex": 126},{"name": "Santos", "country": "BR", "latitude": -23.96083, "longitude": -46.33361, "popIndex": 142},{"name": "Santo Antonio de Posse", "country": "BR", "latitude": -22.60611, "longitude": -46.91944, "popIndex": 142},{"name": "Santo Antonio de Padua", "country": "BR", "latitude": -21.53944, "longitude": -42.18028, "popIndex": 132},{"name": "Santo Antonio da Platina", "country": "BR", "latitude": -23.295, "longitude": -50.07722, "popIndex": 165},{"name": "Santo Angelo", "country": "BR", "latitude": -28.29917, "longitude": -54.26306, "popIndex": 173},{"name": "Santo Andre", "country": "BR", "latitude": -23.66389, "longitude": -46.53833, "popIndex": 142},{"name": "Santo Amaro da Imperatriz", "country": "BR", "latitude": -27.68806, "longitude": -48.77861, "popIndex": 169},{"name": "Santo Amaro", "country": "BR", "latitude": -12.54667, "longitude": -38.71194, "popIndex": 117},{"name": "Santiago", "country": "BR", "latitude": -29.19167, "longitude": -54.86722, "popIndex": 173},{"name": "Santa Vitoria do Palmar", "country": "BR", "latitude": -33.51889, "longitude": -53.36806, "popIndex": 173},{"name": "Santa Rosa de Viterbo", "country": "BR", "latitude": -21.47278, "longitude": -47.36306, "popIndex": 142},{"name": "Santa Rosa", "country": "BR", "latitude": -27.87083, "longitude": -54.48139, "popIndex": 173},{"name": "Santa Rita do Sapucai", "country": "BR", "latitude": -22.25222, "longitude": -45.70333, "popIndex": 126},{"name": "Santa Rita do Passa Quatro", "country": "BR", "latitude": -21.71028, "longitude": -47.47806, "popIndex": 142},{"name": "Santana do Paraiso", "country": "BR", "latitude": -19.36361, "longitude": -42.56861, "popIndex": 126},{"name": "Santana do Livramento", "country": "BR", "latitude": -30.89083, "longitude": -55.53278, "popIndex": 173},{"name": "Santana de Parnaiba", "country": "BR", "latitude": -23.44417, "longitude": -46.91778, "popIndex": 142},{"name": "Santa Maria da Vitoria", "country": "BR", "latitude": -13.38814, "longitude": -44.19868, "popIndex": 117},{"name": "Santa Maria", "country": "BR", "latitude": -29.68417, "longitude": -53.80694, "popIndex": 173},{"name": "Santa Luzia", "country": "BR", "latitude": -19.76972, "longitude": -43.85139, "popIndex": 126},{"name": "Santaluz", "country": "BR", "latitude": -11.25583, "longitude": -39.37472, "popIndex": 117},{"name": "Santa Isabel", "country": "BR", "latitude": -23.31556, "longitude": -46.22139, "popIndex": 142},{"name": "Santa Helena de Goias", "country": "BR", "latitude": -17.81361, "longitude": -50.59694, "popIndex": 209},{"name": "Santa Fe do Sul", "country": "BR", "latitude": -20.21111, "longitude": -50.92583, "popIndex": 142},{"name": "Santa Cruz do Sul", "country": "BR", "latitude": -29.7175, "longitude": -52.42583, "popIndex": 173},{"name": "Santa Cruz das Palmeiras", "country": "BR", "latitude": -21.82694, "longitude": -47.24861, "popIndex": 142},{"name": "Santa Cruz Cabralia", "country": "BR", "latitude": -16.27806, "longitude": -39.02472, "popIndex": 117},{"name": "Santa Barbara d'Oeste", "country": "BR", "latitude": -22.75361, "longitude": -47.41361, "popIndex": 142},{"name": "Salvador", "country": "BR", "latitude": -12.97563, "longitude": -38.49096, "popIndex": 117},{"name": "Salto", "country": "BR", "latitude": -23.20083, "longitude": -47.28694, "popIndex": 142},{"name": "Salinas", "country": "BR", "latitude": -16.17028, "longitude": -42.29028, "popIndex": 126},{"name": "Sacramento", "country": "BR", "latitude": -19.86528, "longitude": -47.44, "popIndex": 126},{"name": "Ruy Barbosa", "country": "BR", "latitude": -12.28389, "longitude": -40.49389, "popIndex": 117},{"name": "Rosario do Sul", "country": "BR", "latitude": -30.25833, "longitude": -54.91417, "popIndex": 173},{"name": "Rondonopolis", "country": "BR", "latitude": -16.47083, "longitude": -54.63556, "popIndex": 204},{"name": "Rolandia", "country": "BR", "latitude": -23.30972, "longitude": -51.36917, "popIndex": 165},{"name": "Rio Verde de Mato Grosso", "country": "BR", "latitude": -18.91806, "longitude": -54.84417, "popIndex": 200},{"name": "Rio Verde", "country": "BR", "latitude": -17.79806, "longitude": -50.92806, "popIndex": 209},{"name": "Rio Real", "country": "BR", "latitude": -11.48472, "longitude": -37.93278, "popIndex": 117},{"name": "Rio Pardo", "country": "BR", "latitude": -29.98972, "longitude": -52.37806, "popIndex": 173},{"name": "Rio Negrinho", "country": "BR", "latitude": -26.25444, "longitude": -49.51833, "popIndex": 169},{"name": "Rio Grande", "country": "BR", "latitude": -32.035, "longitude": -52.09861, "popIndex": 173},{"name": "Rio do Sul", "country": "BR", "latitude": -27.21417, "longitude": -49.64306, "popIndex": 169},{"name": "Rio de Janeiro", "country": "BR", "latitude": -22.90642, "longitude": -43.18223, "popIndex": 132},{"name": "Rio Claro", "country": "BR", "latitude": -22.41139, "longitude": -47.56139, "popIndex": 142},{"name": "Rio Brilhante", "country": "BR", "latitude": -21.80194, "longitude": -54.54639, "popIndex": 200},{"name": "Rio Branco do Sul", "country": "BR", "latitude": -25.19, "longitude": -49.31417, "popIndex": 165},{"name": "Ribeirao Preto", "country": "BR", "latitude": -21.1775, "longitude": -47.81028, "popIndex": 142},{"name": "Ribeirao das Neves", "country": "BR", "latitude": -19.76694, "longitude": -44.08667, "popIndex": 126},{"name": "Ribeirao da Ilha", "country": "BR", "latitude": -27.69934, "longitude": -48.53219, "popIndex": 168},{"name": "Ribeira do Pombal", "country": "BR", "latitude": -10.83444, "longitude": -38.53583, "popIndex": 117},{"name": "Riachao do Jacuipe", "country": "BR", "latitude": -11.80694, "longitude": -39.38556, "popIndex": 117},{"name": "Resplendor", "country": "BR", "latitude": -19.32556, "longitude": -41.25528, "popIndex": 126},{"name": "Resende", "country": "BR", "latitude": -22.46889, "longitude": -44.44667, "popIndex": 132},{"name": "Quarai", "country": "BR", "latitude": -30.3875, "longitude": -56.45139, "popIndex": 173},{"name": "Presidente Venceslau", "country": "BR", "latitude": -21.87611, "longitude": -51.84389, "popIndex": 142},{"name": "Presidente Prudente", "country": "BR", "latitude": -22.12556, "longitude": -51.38889, "popIndex": 142},{"name": "Presidente Epitacio", "country": "BR", "latitude": -21.76333, "longitude": -52.11556, "popIndex": 142},{"name": "Praia Grande", "country": "BR", "latitude": -24.00583, "longitude": -46.40278, "popIndex": 142},{"name": "Prado", "country": "BR", "latitude": -17.34111, "longitude": -39.22083, "popIndex": 117},{"name": "Pouso Alegre", "country": "BR", "latitude": -22.23, "longitude": -45.93639, "popIndex": 126},{"name": "Porto Uniao", "country": "BR", "latitude": -26.23806, "longitude": -51.07833, "popIndex": 169},{"name": "Porto Seguro", "country": "BR", "latitude": -16.44972, "longitude": -39.06472, "popIndex": 117},{"name": "Porto Ferreira", "country": "BR", "latitude": -21.85389, "longitude": -47.47917, "popIndex": 142},{"name": "Porto Feliz", "country": "BR", "latitude": -23.21472, "longitude": -47.52389, "popIndex": 142},{"name": "Porto Alegre", "country": "BR", "latitude": -30.03283, "longitude": -51.23019, "popIndex": 173},{"name": "Porangatu", "country": "BR", "latitude": -13.44083, "longitude": -49.14861, "popIndex": 209},{"name": "Pontes e Lacerda", "country": "BR", "latitude": -15.22611, "longitude": -59.33528, "popIndex": 204},{"name": "Ponta Pora", "country": "BR", "latitude": -22.53611, "longitude": -55.72556, "popIndex": 200},{"name": "Ponta Grossa", "country": "BR", "latitude": -25.095, "longitude": -50.16194, "popIndex": 165},{"name": "Pompeu", "country": "BR", "latitude": -19.22444, "longitude": -44.93528, "popIndex": 126},{"name": "Pomerode", "country": "BR", "latitude": -26.74056, "longitude": -49.17694, "popIndex": 169},{"name": "Pocos de Caldas", "country": "BR", "latitude": -21.78778, "longitude": -46.56139, "popIndex": 126},{"name": "Pocone", "country": "BR", "latitude": -16.25667, "longitude": -56.62278, "popIndex": 204},{"name": "Pocoes", "country": "BR", "latitude": -14.52972, "longitude": -40.36528, "popIndex": 117},{"name": "Planaltina", "country": "BR", "latitude": -15.45278, "longitude": -47.61417, "popIndex": 209},{"name": "Piui", "country": "BR", "latitude": -20.46528, "longitude": -45.95806, "popIndex": 126},{"name": "Pitangui", "country": "BR", "latitude": -19.68278, "longitude": -44.89028, "popIndex": 126},{"name": "Pitanga", "country": "BR", "latitude": -24.75722, "longitude": -51.76139, "popIndex": 165},{"name": "Piritiba", "country": "BR", "latitude": -11.73028, "longitude": -40.55528, "popIndex": 117},{"name": "Pires do Rio", "country": "BR", "latitude": -17.29972, "longitude": -48.27944, "popIndex": 209},{"name": "Piraquara", "country": "BR", "latitude": -25.44227, "longitude": -49.06795, "popIndex": 165},{"name": "Pirapora", "country": "BR", "latitude": -17.345, "longitude": -44.94194, "popIndex": 126},{"name": "Pirajui", "country": "BR", "latitude": -21.99861, "longitude": -49.45722, "popIndex": 142},{"name": "Pirai do Sul", "country": "BR", "latitude": -24.52611, "longitude": -49.94861, "popIndex": 165},{"name": "Pirai", "country": "BR", "latitude": -22.62917, "longitude": -43.89806, "popIndex": 132},{"name": "Pirassununga", "country": "BR", "latitude": -21.99611, "longitude": -47.42583, "popIndex": 142},{"name": "Piracicaba", "country": "BR", "latitude": -22.72528, "longitude": -47.64917, "popIndex": 142},{"name": "Piracanjuba", "country": "BR", "latitude": -17.30278, "longitude": -49.01667, "popIndex": 209},{"name": "Pinheiral", "country": "BR", "latitude": -22.51278, "longitude": -44.00056, "popIndex": 132},{"name": "Espirito Santo do Pinhal", "country": "BR", "latitude": -22.11583, "longitude": -46.68278, "popIndex": 142},{"name": "Pindobacu", "country": "BR", "latitude": -10.74167, "longitude": -40.36083, "popIndex": 117},{"name": "Pindamonhangaba", "country": "BR", "latitude": -22.92389, "longitude": -45.46167, "popIndex": 142},{"name": "Pilar do Sul", "country": "BR", "latitude": -23.81306, "longitude": -47.71639, "popIndex": 142},{"name": "Petropolis", "country": "BR", "latitude": -22.505, "longitude": -43.17861, "popIndex": 132},{"name": "Peruibe", "country": "BR", "latitude": -24.32, "longitude": -46.99833, "popIndex": 142},{"name": "Pereira Barreto", "country": "BR", "latitude": -20.63833, "longitude": -51.10917, "popIndex": 141},{"name": "Penha", "country": "BR", "latitude": -26.76944, "longitude": -48.64583, "popIndex": 169},{"name": "Penedo", "country": "BR", "latitude": -10.29028, "longitude": -36.58639, "popIndex": 108},{"name": "Penapolis", "country": "BR", "latitude": -21.41972, "longitude": -50.0775, "popIndex": 141},{"name": "Pelotas", "country": "BR", "latitude": -31.76997, "longitude": -52.34101, "popIndex": 173},{"name": "Pedreira", "country": "BR", "latitude": -22.74194, "longitude": -46.90139, "popIndex": 141},{"name": "Pedra Azul", "country": "BR", "latitude": -16.00528, "longitude": -41.29722, "popIndex": 126},{"name": "Paulinia", "country": "BR", "latitude": -22.76111, "longitude": -47.15417, "popIndex": 141},{"name": "Patrocinio", "country": "BR", "latitude": -18.94389, "longitude": -46.9925, "popIndex": 126},{"name": "Patos de Minas", "country": "BR", "latitude": -18.57889, "longitude": -46.51806, "popIndex": 126},{"name": "Pato Branco", "country": "BR", "latitude": -26.22861, "longitude": -52.67056, "popIndex": 165},{"name": "Paty do Alferes", "country": "BR", "latitude": -22.42861, "longitude": -43.41861, "popIndex": 132},{"name": "Posto da Mata", "country": "BR", "latitude": -17.88828, "longitude": -39.85593, "popIndex": 117},{"name": "Passos", "country": "BR", "latitude": -20.71889, "longitude": -46.60972, "popIndex": 126},{"name": "Passo Fundo", "country": "BR", "latitude": -28.26278, "longitude": -52.40667, "popIndex": 173},{"name": "Paraty", "country": "BR", "latitude": -23.21778, "longitude": -44.71306, "popIndex": 132},{"name": "Paranavai", "country": "BR", "latitude": -23.07306, "longitude": -52.46528, "popIndex": 165},{"name": "Paranapanema", "country": "BR", "latitude": -23.3863, "longitude": -48.72441, "popIndex": 141},{"name": "Paranaiba", "country": "BR", "latitude": -19.67722, "longitude": -51.19083, "popIndex": 200},{"name": "Paranagua", "country": "BR", "latitude": -25.51626, "longitude": -48.52537, "popIndex": 165},{"name": "Paraiba do Sul", "country": "BR", "latitude": -22.15847, "longitude": -43.29321, "popIndex": 132},{"name": "Paraguacu Paulista", "country": "BR", "latitude": -22.41278, "longitude": -50.57583, "popIndex": 141},{"name": "Paraguacu", "country": "BR", "latitude": -21.54722, "longitude": -45.7375, "popIndex": 126},{"name": "Para de Minas", "country": "BR", "latitude": -19.86028, "longitude": -44.60833, "popIndex": 126},{"name": "Paracatu", "country": "BR", "latitude": -17.22222, "longitude": -46.87472, "popIndex": 126},{"name": "Paracambi", "country": "BR", "latitude": -22.60829, "longitude": -43.7084, "popIndex": 132},{"name": "Panambi", "country": "BR", "latitude": -28.2925, "longitude": -53.50167, "popIndex": 173},{"name": "Palmeira das Missoes", "country": "BR", "latitude": -27.89944, "longitude": -53.31361, "popIndex": 173},{"name": "Palmeira", "country": "BR", "latitude": -25.42944, "longitude": -50.00639, "popIndex": 165},{"name": "Palmas", "country": "BR", "latitude": -26.48417, "longitude": -51.99056, "popIndex": 165},{"name": "Palhoca", "country": "BR", "latitude": -27.64528, "longitude": -48.66778, "popIndex": 168},{"name": "Paicandu", "country": "BR", "latitude": -23.4575, "longitude": -52.04861, "popIndex": 165},{"name": "Padre Bernardo", "country": "BR", "latitude": -15.16595, "longitude": -48.28281, "popIndex": 209},{"name": "Ouro Preto", "country": "BR", "latitude": -20.39484, "longitude": -43.50517, "popIndex": 126},{"name": "Ourinhos", "country": "BR", "latitude": -22.97889, "longitude": -49.87056, "popIndex": 141},{"name": "Osorio", "country": "BR", "latitude": -29.88667, "longitude": -50.26972, "popIndex": 173},{"name": "Osasco", "country": "BR", "latitude": -23.5325, "longitude": -46.79167, "popIndex": 141},{"name": "Orleans", "country": "BR", "latitude": -28.35889, "longitude": -49.29139, "popIndex": 168},{"name": "Oliveira", "country": "BR", "latitude": -20.69639, "longitude": -44.82722, "popIndex": 126},{"name": "Olimpia", "country": "BR", "latitude": -20.73722, "longitude": -48.91472, "popIndex": 141},{"name": "Novo Hamburgo", "country": "BR", "latitude": -29.67833, "longitude": -51.13056, "popIndex": 173},{"name": "Nova Vicosa", "country": "BR", "latitude": -17.89194, "longitude": -39.37194, "popIndex": 117},{"name": "Nova Prata", "country": "BR", "latitude": -28.78389, "longitude": -51.61, "popIndex": 173},{"name": "Nova Lima", "country": "BR", "latitude": -19.98556, "longitude": -43.84667, "popIndex": 126},{"name": "Nova Iguacu", "country": "BR", "latitude": -22.75917, "longitude": -43.45111, "popIndex": 132},{"name": "Nova Granada", "country": "BR", "latitude": -20.53389, "longitude": -49.31417, "popIndex": 141},{"name": "Nova Friburgo", "country": "BR", "latitude": -22.28194, "longitude": -42.53111, "popIndex": 132},{"name": "Nova Era", "country": "BR", "latitude": -19.75, "longitude": -43.0375, "popIndex": 126},{"name": "Nossa Senhora do Socorro", "country": "BR", "latitude": -10.855, "longitude": -37.12611, "popIndex": 112},{"name": "Niteroi", "country": "BR", "latitude": -22.88333, "longitude": -43.10361, "popIndex": 132},{"name": "Niquelandia", "country": "BR", "latitude": -14.47389, "longitude": -48.45972, "popIndex": 209},{"name": "Nilopolis", "country": "BR", "latitude": -22.8075, "longitude": -43.41389, "popIndex": 132},{"name": "Neropolis", "country": "BR", "latitude": -16.40639, "longitude": -49.21861, "popIndex": 209},{"name": "Nazare", "country": "BR", "latitude": -13.035, "longitude": -39.01444, "popIndex": 117},{"name": "Navirai", "country": "BR", "latitude": -23.065, "longitude": -54.19056, "popIndex": 200},{"name": "Navegantes", "country": "BR", "latitude": -26.89889, "longitude": -48.65417, "popIndex": 168},{"name": "Nanuque", "country": "BR", "latitude": -17.83917, "longitude": -40.35389, "popIndex": 126},{"name": "Muritiba", "country": "BR", "latitude": -12.91667, "longitude": -39.25, "popIndex": 116},{"name": "Muriae", "country": "BR", "latitude": -21.13056, "longitude": -42.36639, "popIndex": 126},{"name": "Mucuri", "country": "BR", "latitude": -18.08639, "longitude": -39.55083, "popIndex": 117},{"name": "Morro do Chapeu", "country": "BR", "latitude": -11.54852, "longitude": -41.15804, "popIndex": 117},{"name": "Montes Claros", "country": "BR", "latitude": -16.735, "longitude": -43.86167, "popIndex": 126},{"name": "Monte Santo de Minas", "country": "BR", "latitude": -21.18972, "longitude": -46.98028, "popIndex": 126},{"name": "Montenegro", "country": "BR", "latitude": -29.68861, "longitude": -51.46111, "popIndex": 172},{"name": "Monte Carmelo", "country": "BR", "latitude": -18.72472, "longitude": -47.49861, "popIndex": 126},{"name": "Monte Azul Paulista", "country": "BR", "latitude": -20.90722, "longitude": -48.64139, "popIndex": 141},{"name": "Monte Alto", "country": "BR", "latitude": -21.26111, "longitude": -48.49639, "popIndex": 141},{"name": "Mogi Mirim", "country": "BR", "latitude": -22.43194, "longitude": -46.95778, "popIndex": 141},{"name": "Mogi Guacu", "country": "BR", "latitude": -22.3677, "longitude": -46.94552, "popIndex": 141},{"name": "Mogi das Cruzes", "country": "BR", "latitude": -23.52278, "longitude": -46.18833, "popIndex": 141},{"name": "Mococa", "country": "BR", "latitude": -21.46778, "longitude": -47.00472, "popIndex": 141},{"name": "Mirandopolis", "country": "BR", "latitude": -21.13361, "longitude": -51.10167, "popIndex": 141},{"name": "Miracema", "country": "BR", "latitude": -21.41222, "longitude": -42.19667, "popIndex": 132},{"name": "Miracatu", "country": "BR", "latitude": -24.28139, "longitude": -47.45972, "popIndex": 141},{"name": "Medianeira", "country": "BR", "latitude": -25.29528, "longitude": -54.09389, "popIndex": 165},{"name": "Maua", "country": "BR", "latitude": -23.66778, "longitude": -46.46139, "popIndex": 141},{"name": "Matozinhos", "country": "BR", "latitude": -19.55778, "longitude": -44.08139, "popIndex": 126},{"name": "Mateus Leme", "country": "BR", "latitude": -19.98639, "longitude": -44.42778, "popIndex": 126},{"name": "Matao", "country": "BR", "latitude": -21.60333, "longitude": -48.36583, "popIndex": 141},{"name": "Mata de Sao Joao", "country": "BR", "latitude": -12.53028, "longitude": -38.29917, "popIndex": 117},{"name": "Martinopolis", "country": "BR", "latitude": -22.14583, "longitude": -51.17083, "popIndex": 141},{"name": "Maringa", "country": "BR", "latitude": -23.42528, "longitude": -51.93861, "popIndex": 165},{"name": "Marilia", "country": "BR", "latitude": -22.21389, "longitude": -49.94583, "popIndex": 141},{"name": "Mariana", "country": "BR", "latitude": -20.37778, "longitude": -43.41611, "popIndex": 126},{"name": "Marechal Candido Rondon", "country": "BR", "latitude": -24.55611, "longitude": -54.05667, "popIndex": 165},{"name": "Maragogipe", "country": "BR", "latitude": -12.77778, "longitude": -38.91944, "popIndex": 117},{"name": "Maracaju", "country": "BR", "latitude": -21.61444, "longitude": -55.16833, "popIndex": 200},{"name": "Manhuacu", "country": "BR", "latitude": -20.25806, "longitude": -42.03361, "popIndex": 126},{"name": "Mangaratiba", "country": "BR", "latitude": -22.95972, "longitude": -44.04056, "popIndex": 132},{"name": "Mandaguari", "country": "BR", "latitude": -23.5475, "longitude": -51.67083, "popIndex": 165},